"","business_id","name","address","city","state","postal_code","latitude","longitude","stars","review_count","is_open","attributes.WiFi","attributes.WheelchairAccessible","attributes.DogsAllowed","attributes.Alcohol","attributes.GoodForKids","attributes.RestaurantsGoodForGroups"
"14","pJfh3Ct8iL58NZa8ta-a5w","Top Shelf Sports Lounge","3173 Cypress Ridge Blvd","Wesley Chapel","FL","33544","28.19625"," -82.38062","4.5","  95","1","u'free'","True","False","u'full_bar'","False"," 'romantic': False"
"15","11:30-22:0","11:30-23:30","11:30-23:30","11:30-23:30","11:30-23:30","10:0-23:30","10:0-22:0","","","","","","","","","",""
"17","vje0KIiE7vtpx7JzmBx5LQ","The Pearl","163 107th Ave","Treasure Island","FL","33706","27.76940"," -82.76732","4.0"," 129","1","'free'"," 'street': False","False","True","False","False"
"39","xbRbvXSAVZBEwaUUn3mzbg","Lee Roy Selmon's","14457 N Dale Mabry Hwy","Tampa","FL","33618","28.07873"," -82.50631","3.5","  42","0","'free'"," 'street': False","True","True","True","True"
"42","VVvUBlc_WIEb8obKGq39dA","Four Green Fields","4100 George J Bean Pkwy, Airside E, Tampa International Airport","Tampa","FL","33607","27.98040"," -82.53779","4.5","  39","1","'no'"," 'street': False","False","False","True","True"
"43","5:0-21:30","5:0-21:30","5:0-21:30","5:0-21:30","5:0-21:30","","","","","","","","","","","",""
"47","dJfkfBbJz7wi0RgW-ph_Eg","Sake House","5106 E Fowler Ave","Tampa","FL","33617","28.05521"," -82.39937","3.0"," 140","0","u'no'"," 'street': False","True","False","True","True"
"58","XwoXi0M66RU6Gouq-DSDHw","G Peppers Grill & Tavern","8745 Gunn Hwy","Odessa","FL","33556","28.09214"," -82.57857","4.0","  82","1","u'free'"," 'street': False","True","False","True","True"
"68","j9Kaj_6tSeXmVMYCgZithg","Noble Crust","28330 Paseo Dr","Wesley Chapel","FL","33543","28.18822"," -82.34727","4.5"," 496","1","'free'"," 'street': False","True","True","True","True"
"96","dIpTuL2T1L98GQGU17IeSw","The Bricks","1327 E 7th Ave","Tampa","FL","33605","27.96002"," -82.44440","4.0"," 548","1","u'free'"," 'street': True","True","True","True","True"
"105","SFKjUQ1gmfwm7cJhMCFmkA","ZigZag Scallop","4417 Calienta St","Hernando Beach","FL","34607","28.49770"," -82.65001","4.0"," 214","1","u'free'"," 'street': False","True","True","True","True"
"122","uKEabBQrn0gLzvTppOrKIA","Casita Taqueria","2701 4th St","Saint Petersburg","FL","33704","27.79698"," -82.63817","4.5"," 207","1","'no'"," 'street': None","True","True","True","True"
"143","71U7MxQEhwitJOm4CQpRwQ","KELP Sushi Joint","3401 W Bay To Bay Blvd, Ste D","Tampa","FL","33629","27.92007"," -82.49892","4.0"," 325","1","u'free'"," 'street': False","True","True","False","True"
"147","sWCCxY1-9B1FGlSVeQvnHg","CD Roma Restaurant","1462 66th St N","St Petersburg","FL","33710","27.78549"," -82.73029","4.0"," 125","1","u'free'"," 'street': False","True","True","True","True"
"148","11:0-21:0","11:0-22:0","11:0-19:0","11:0-22:0","11:0-21:0","","","","","","","","","","","",""
"187","dUctvEfHQccW_uxtRup2QQ","Tsunami Japanese Steakhouse","2176 Tyrone Blvd N","Saint Petersburg","FL","33710","27.78996"," -82.72622","3.0"," 212","1","'no'"," 'street': False","True","False","True","True"
"199","Ea2hPSFazxXITET4f6ZJhw","Beef 'O' Brady's","18421 N US Hwy 41","Lutz","FL","33549","28.14065"," -82.46120","3.0","  46","1","u'free'"," 'street': False","True","False","True","True"
"203","_HcAoG6Jj_XTj4-XNEbo6Q","Fuzzy's Taco Shop","5621 E Fowler Ave, Units 201-207","Tampa","FL","33617","28.05333"," -82.39281","3.0"," 172","1","u'free'"," 'street': False","True","True","True","True"
"225","fT4jl8pcXCxKBrM85XjXSg","Vino Simpatico","722 Pasadena Ave S","Saint Petersburg","FL","33707","27.76312"," -82.73431","4.5","  21","1","u'free'"," 'street': False","True","False","True","False"
"226","","","","","","","","","","","","","","","","",""
"246","ryHhnOItSVPJB81Ty0Xb2g","Stonefire Tavern","10637 117th Dr N","Largo","FL","33773","27.88001"," -82.78617","4.0","  59","0","u'free'"," 'street': False","True","False","True","False"
"264","v8IbZ6wcvdyGqWpbDKDvfA","YO! Sushi","International Plz, 2223 N Westshore Blvd","Tampa","FL","33607","27.96454"," -82.52076","4.0"," 121","0","'free'"," 'street': False","True","False","False","True"
"274","12:0-3:0","12:0-3:0","12:0-3:0","12:0-3:0","12:0-3:0","12:0-3:0","","","","","","","","","","",""
"275","VZfc50XVwgdCecH4YbGNFg","EATS! American Grill","4502 S Dale Mabry Hwy","Tampa","FL","33611","27.90258"," -82.50563","4.0"," 323","0","'free'"," 'street': False","True","True","True","True"
"285","nFjk0xVI9fNiVN__5g-m8Q","Ichicoro Ane","260 1st Ave S, Ste 100","Saint Petersburg","FL","33701","27.77010"," -82.63646","4.0"," 264","1","u'free'"," 'street': True","True","False","False","True"
"322","JOvNunKJlWhwJRwLmUR9ZA","Tryst Gastro Lounge","240 Beach Dr NE","St Petersburg","FL","33701","27.77452"," -82.63271","3.5"," 295","1","'free'"," 'street': True","True","True","True","False"
"353","nIE7ph1w_bttQMJQx5hUEQ","D-Town Bar & Grill","1056 Main St","Dunedin","FL","34698","28.01925"," -82.77485","3.0","  91","1","'free'"," 'street': False","True","False","True","True"
"354","11:0-21:0","11:0-21:0","11:0-21:0","11:0-21:0","11:0-21:0","","","","","","","","","","","",""
"363","11:0-18:0","11:0-18:0","11:0-0:0","11:0-2:0","16:0-2:0","16:0-0:0","","","","","","","","","","",""
"364","SZgkdhd837HkbtVFVmSMXw","Guido's Italian Restaurant","7219 Forest Oaks Blvd","Spring Hill","FL","34606","28.49185"," -82.59739","3.5"," 128","1","u'no'"," 'street': False","False","True","True","True"
"378","sVWUxesVKseXGq78UwwajA","Steak ’n Shake","9116 US Highway 19 N","Port Richey","FL","34668","28.28999"," -82.71123","2.5","  45","1","u'free'"," 'street': False","True","False","False","True"
"401","o6jfwLREaGy1mwAEybjOkg","Stefano Greek Italian Restaurant","8600 N 56th St","Tampa","FL","33617","28.02802"," -82.39383","4.0"," 106","1","'no'"," 'street': False","False","False","True","True"
"427","","","","","","","","","","","","","","","","",""
"429","","","","","","","","","","","","","","","","",""
"431","ZpXZgnBrNodHH8pKpOK_Kg","Jesse's Steak and Seafood","524 W Brandon Blvd","Brandon","FL","33511","27.93814"," -82.29207","4.0"," 267","1","u'no'"," 'street': False","True","False","True","True"
"437","xCbhjDqmrCrP1qK4DADu8g","Kul's Bar & Grill","13575 58th St N","Clearwater","FL","33760","27.89527"," -82.71154","3.0","   6","0","u'free'","True","False","u'full_bar'","True"," 'classy': False"
"445","J1pqZt0WWCL8cOt0eixBEw","Alvarez  Authentic Latin Food","7715 Land O' Lakes Blvd","Land O' Lakes","FL","34638","28.26997"," -82.48087","4.5","  51","1","'no'"," 'street': False","False","True","True","True"
"453","qt1o4H9O9lBwqf3K7GGFag","Jungle Bills Tiki Grill","2950 Gulf To Bay Blvd","Clearwater","FL","33759","27.96120"," -82.71470","4.5","  15","0","u'free'"," 'street': False","True","True","True","True"
"454","11:0-2:0","11:0-2:0","11:0-2:0","12:0-2:0","12:0-22:0","","","","","","","","","","","",""
"456","TghRoAMx43V-9l7mH-SENg","Crabby Bills Clearwater Beach","37 Causeway Blvd","Clearwater Beach","FL","33767","27.97708"," -82.82775","3.5"," 408","0","u'no'"," 'street': True","True","True","True","True"
"461","15:0-3:0","15:0-3:0","15:0-3:0","12:0-3:0","12:0-3:0","12:0-3:0","","","","","","","","","","",""
"508","k4gi0CDSas1glukpWHtoFg","The Flying Bridge","5500 Gulf Blvd","St. Pete Beach","FL","33706","27.73050"," -82.74498","3.5","  62","1","'free'"," 'street': False","True","True","True","True"
"509","","","","","","","","","","","","","","","","",""
"517","-zsvmEbkd-K9K2DAAKqiEQ","Salty's Island Bar & Grille","437 S Gulfview Blvd","Clearwater Beach","FL","33767","27.96976"," -82.82934","4.0"," 599","1","'free'"," 'street': True","True","True","True","True"
"533","g-0-_hPz-yr_f4gBFbX2Ow","Kim's Cuban Sandwich Shop","11911 E Martin Luther King Blvd","Seffner","FL","33584","27.98118"," -82.29767","4.0","  39","1","u'free'"," 'street': False","False","True","True","True"
"544","11:0-21:0","12:0-21:0","12:0-21:0","12:0-22:0","12:0-22:0","12:0-20:0","","","","","","","","","","",""
"548","oqP1oQEycpp4J6u5YebRoQ","American Social","601 S Harbour Island Blvd, Ste 107","Tampa","FL","33602","27.93871"," -82.45475","3.5"," 768","1","'free'"," 'street': False","True","True","True","False"
"553","0l0R_1x2RC8pEwP-OG6UxA","Roberts Meats And Catering","3435 S West Shore Blvd","TAMPA","FL","33629","27.91187"," -82.52705","3.5","  72","0","u'free'"," 'street': False","False","False","True","True"
"565","iF_92LcvfJfrtwjHWhVb-Q","4th Street Pizza","3187 4th St N","St. Petersburg","FL","33704","27.80145"," -82.63781","3.0","  67","1","u'no'"," 'street': False","False","False","False","True"
"579","encfXG_jrG1M6gX1IqrHrw","Ballyhoo Grill","7604 Ehrlich Rd","Tampa","FL","33625","28.07824"," -82.56989","3.5"," 262","0","u'free'"," 'street': False","True","True","True","True"
"626","y3iKFTk_sgIXCT6fNcBn_Q","Chili's","2794 E Fowler Ave","Tampa","FL","33612","28.05503"," -82.42805","2.0"," 114","1","'free'"," 'street': False","True","False","True","True"
"658","YlEBQLfRHocJDn4gRlgczw","Brick City Eatery","16540 Pointe Village Dr, Ste 108","Lutz","FL","33558","28.18937"," -82.54093","4.0"," 114","1","u'free'"," 'street': True","True","False","True","True"
"668","","","","","","","","","","","","","","","","",""
"673","3OGzmGqWwsyGLkhnxrA9Pw","Gourmet Pizza Company","610 S Armenia Ave, Ste 101","Tampa","FL","33609","27.93795"," -82.48468","4.0"," 185","1","u'free'"," 'street': False","False","False","False","True"
"674","CGVpuQ3FpPWyYFQJQlsjLQ","Mole y Abuela","1202 N Franklin St","Tampa","FL","33602","27.95361"," -82.46045","4.0"," 201","0","u'free'"," 'street': True","True","True","True","False"
"711","","","","","","","","","","","","","","","","",""
"716","mLNSOU8Ki0Fm09xd6ZKkcA","Timpano Hyde Park","1610 W Swann Ave","Tampa","FL","33606","27.93704"," -82.47601","3.5"," 380","1","'free'"," 'street': False","True","True","True","False"
"740","Q5odYgHa-ApKOPVrEFmRQA","Centro Cantina","1600 E 8th Ave","Tampa","FL","33605","27.96058"," -82.44157","3.0"," 107","1","u'free'"," 'street': True","True","True","True","False"
"741","11:0-21:0","11:0-22:0","11:0-22:0","11:0-0:0","11:0-0:0","12:0-0:0","","","","","","","","","","",""
"743","12:0-4:0","12:0-4:0","12:0-5:0","12:0-6:0","12:0-6:0","12:0-4:0","","","","","","","","","","",""
"752","eWGdkt9fdwg7aKboaZIVQQ","Uncle Maddios Pizza","3949 Van Dyke Rd","Lutz","FL","33558","28.12790"," -82.50441","4.0"," 103","0","u'free'"," 'street': False","True","True","True","True"
"754","4JQ0hePJAlBepDzb20_32g","Beanie's Bar & Sports Grill","2002 S US Hwy 41","Ruskin","FL","33570","27.70431"," -82.44257","3.5","  80","1","'no'"," 'street': False","True","True","True","True"
"761","cg4JFJcCxRTTMmcg9O9KtA","Ava","718 S Howard Ave","Tampa","FL","33606","27.93624"," -82.48286","3.5"," 544","1","'free'"," 'street': False","True","True","True","True"
"765","","","","","","","","","","","","","","","","",""
"769","-7GjicSH_rM8JeZGCXGcUg","Double Decker","1721 E 7th Ave","Tampa","FL","33605","27.96008"," -82.43984","3.0","  86","1","u'free'"," 'street': False","True","True","True","False"
"770","","","","","","","","","","","","","","","","",""
"798","_O16xyQwp0YSTG2RgweRYA","Luigi's Italian Restaurant","3224 W Gandy Blvd, Ste 3","Tampa","FL","33611","27.89336"," -82.49954","3.5","  37","0","'no'"," 'street': False","True","True","True","True"
"800","_Xo-JzgxbMaDi5cvlfHpwg","Nidia's Latin Grill","14164 574th Hwy","Dover","FL","33527","27.99422"," -82.22025","4.5","  19","1","u'no'"," 'street': False","False","False","True","True"
"825","Dwwt8KwB0iyf86aE4p4vSQ","La Giraldilla","1003 W Hillsborough Ave, Ste 4","Tampa","FL","33603","27.99638"," -82.47220","3.0","  27","1","'no'"," 'street': False","False","True","True","True"
"846","ugSj0rWlWQ57-FuKuieGXA","Tampa Pizza Co - Westchase","9556 W Linebaugh Ave","Tampa","FL","33626","28.04293"," -82.59231","4.0","  81","1","u'free'"," u'garage': False","True","True","True","True"
"849","BVndHaLihEYbr76Z0CMEGw","Mamas Kitchen","5524 S Dale Mabry Hwy","Tampa","FL","33611","27.88485"," -82.50600","4.5"," 162","1","u'free'"," 'street': False","False","True","False","True"
"855","LkskzKzo_S8YmG1dGn4hag","Tijuana Flats","9520 W. Linebaugh Ave.","Tampa","FL","33626","28.04332"," -82.59242","4.0"," 104","1","'free'"," 'street': None","True","True","True","True"
"872","qf4LecJDQWIt0gt6VJWFPw","Frontier Steakhouse","8602 E Sligh Ave","Tampa","FL","33610","28.01143"," -82.36057","3.5","  95","1","'no'"," 'street': False","True","False","True","True"
"891","lZyINQz8hoGZk-WhqXy0Sw","Above The Salt Cafe","428 W Waters Ave","Tampa","FL","33604","28.02505"," -82.46501","5.0","  41","0","u'free'"," 'street': False","False","True","True","True"
"904","","","","","","","","","","","","","","","","",""
"907","","","","","","","","","","","","","","","","",""
"911","11:0-3:0","11:0-3:0","11:0-3:0","11:0-3:0","11:0-3:0","11:0-3:0","","","","","","","","","","",""
"917","aAdGIK9ewmiWtGzIcrQgNA","Gran Agave","5924 Providence Rd","Riverview","FL","33578","27.89444"," -82.31803","3.5"," 214","1","'free'"," 'street': False","True","True","True","True"
"930","kKPJLiHIr9Gd9sYs3GhxDQ","Brick & Mortar","539 Central Ave","Saint Petersburg","FL","33701","27.77135"," -82.64105","4.5"," 421","1","u'no'"," 'street': True","False","True","True","False"
"934","","","","","","","","","","","","","","","","",""
"940","12:0-3:0","12:0-3:0","12:0-3:0","12:0-3:0","12:0-3:0","12:0-3:0","","","","","","","","","","",""
"963","8K73iRrUIXcwTB5SKetptQ","Sushi-Haru","3817 Northdale Blvd","Tampa","FL","33624","28.09431"," -82.50411","3.5","  63","0","u'free'"," 'street': False","True","False","True","True"
"970","7EhTT4iEuA7JaaWA-eI3Qw","Seasons Cafe & Bakery","7261 US Hwy 19 N","Pinellas Park","FL","33781","27.83846"," -82.68246","4.0"," 292","0","u'free'"," 'street': False","False","True","False","True"
"975","SCBYAipfLtclqn5psCyIpQ","Applebee's Grill + Bar","4651 Commercial Way","Spring Hill","FL","34606","28.49603"," -82.59603","2.5","  38","1","u'free'"," 'street': None","True","True","True","True"
"976","","","","","","","","","","","","","","","","",""
"978","13:0-0:0","13:0-0:0","12:0-22:0","12:0-2:0","12:0-2:0","12:0-22:0","","","","","","","","","","",""
"989","P_x9fEz8efemqOIV46S0tg","Red Mesa Restaurant","4912 4th St N","St Petersburg","FL","33703","27.81687"," -82.63897","4.0"," 585","1","u'free'"," 'street': False","True","True","True","True"
"1000","1XttS5NTqLxhyNb-Rt2fOQ","Keith's Oaks Bar & Grill","108 Lithia Pinecrest Rd","Brandon","FL","33511","27.93697"," -82.28160","3.0","  93","1","u'free'"," 'street': False","True","True","True","True"
"1008","qa1fGa9u0_awl-A8CinLRg","McAlister's Deli","14444 N Dale Mabry","Tampa","FL","33618","28.07984"," -82.50749","4.0","  72","1","'free'"," 'street': None","False","True","True","True"
"1014","USekrAG0-4tJUs9V2gBBOQ","The Honu","516 Grant St","Dunedin","FL","34698","28.01361"," -82.78525","4.0"," 234","1","u'free'"," 'street': True","True","True","True","True"
"1016","wI51ie-6j7y5MzxOCS4fNA","Tangelo's Grille","3121 Beach Blvd S","Gulfport","FL","33707","27.73818"," -82.70810","4.0"," 121","0","'free'"," 'street': True","False","True","True","True"
"1017","8:30-16:0","8:30-16:0","8:30-21:0","9:0-21:0","9:0-15:0","","","","","","","","","","","",""
"1027","17:0-23:0","17:0-0:0","17:0-0:0","17:0-1:0","16:30-21:30","17:0-22:0","","","","","","","","","","",""
"1048","bjl2Xtm9kCWsCqz0OkS75g","Tapper Pub","3832 Britton Plz","Tampa","FL","33611","27.90753"," -82.50269","4.0","  29","1","'free'"," 'street': None","True","True","True","False"
"1066","ySXKjndttZjNy3kcqRqG3g","Islamorada Fish Company Restaurant","10501 Palm River Rd","Tampa","FL","33619","27.93454"," -82.33322","2.5"," 136","0","u'no'"," 'street': False","True","False","False","True"
"1075","7tN8hIXdQlfc7Lf5OOyjeg","Gator's Dockside - Tampa","5840 E Fowler Ave","Tampa","FL","33617","28.05489"," -82.39058","3.5"," 158","0","u'free'"," 'street': False","True","True","True","True"
"1086","LnQRfj3pPz0369stRnwUWw","Sushi Ushi","1713 State Rd 60 E","Valrico","FL","33594","27.93708"," -82.25909","4.5"," 256","1","u'free'"," 'street': False","True","False","True","True"
"1087","U0ICWpbd1C0GD9SpIv3bSA","Outback Steakhouse","2020 Brandon Blvd, Ste 190","Brandon","FL","33511","27.93847"," -82.31835","3.5"," 165","1","'free'"," 'street': False","True","True","True","True"
"1088","L-YdO_NODKXXT3bkS0nUpg","RumFish Grill","6000 Gulf Blvd","Saint Pete Beach","FL","33706","27.73223"," -82.74645","3.5"," 664","1","u'free'"," 'street': False","True","True","True","True"
"1092","Swjkmg5qAHT6hwXQRWQoHQ","Tampa Bay Brewing Company Westchase","13937 Monroe's Business Park","Tampa","FL","33635","28.03784"," -82.64766","4.0"," 476","1","u'free'"," 'street': True","False","True","True","True"
"1095","wHiPhPVuGnngEieDBMG00g","Mellow Mushroom - Brandon","10959 Causeway Blvd","Brandon","FL","33511","27.92226"," -82.32867","4.0"," 391","1","u'free'"," 'street': True","True","True","True","True"
"1117","lH3tplAcbNrNL0nJoyXCNA","Keke's Breakfast Cafe","13614 Bruce B Downs Blvd","Tampa","FL","33612","28.07146"," -82.42683","4.5"," 163","1","u'free'"," 'street': False","False","False","False","True"
"1126","WWnRdTjwaTnsLSJX95j-Zw","Hablo Taco","615 Channelside Dr, Ste 127, Channelside Bay Plaza","Tampa","FL","33602","27.94305"," -82.44750","3.5"," 268","0","u'free'"," 'street': True","True","True","True","True"
"1127","11:30-22:0","11:30-22:0","11:30-23:0","11:30-0:30","11:30-22:0","","","","","","","","","","","",""
"1130","IjtKwA7njLjTvZr0nFSLeA","Kuba ","7525 Blind Pass Rd","St. Pete Beach","FL","33706","27.74352"," -82.75064","4.0"," 230","1","'free'"," 'street': True","True","True","False","True"
"1143","_Dr8Bnt8us2qyPKayfj-rA","IHOP","4736 US Hwy 19","NEW PORT RICHEY","FL","34652","28.22827"," -82.73109","2.5","  29","1","'free'"," 'street': False","False","False","False","True"
"1146","10:0-2:0","10:0-2:0","10:0-2:0","10:0-2:0","10:0-2:0","10:0-2:0","","","","","","","","","","",""
"1157","geMJbmX310M5VYe2f7au8Q","Inside the Box","2002 N Florida Ave","Tampa","FL","33602","27.96339"," -82.45969","4.0","  27","1","u'no'"," 'street': True","False","False","False","True"
"1164","A2TDvUnOgCRKeyWN8V2WGg","WingHouse Bar & Grill","7369 Ulmerton Road","Largo","FL","33771","27.89460"," -82.73995","3.5"," 112","1","'free'"," 'street': False","True","True","True","True"
"1167","UakVMT3xrpbFB2pHdxPjnw","Crown & Bull","319 Main St","Dunedin","FL","34698","28.01170"," -82.78941","3.5"," 668","1","u'free'"," 'street': True","True","True","True","True"
"1185","hnJ_Bt2-Io_Mdf9p1KlprQ","Joto Thai-Sushi Clearwater","2549 Countryside Blvd, Ste 3","Clearwater","FL","33761","28.01263"," -82.73172","3.5","  37","0","'no'"," 'street': False","True","False","False","True"
"1190","sjueAFshWHWkKn5a1AymuQ","District Tavern","116 N 12th St","Tampa","FL","33602","27.94806"," -82.44682","4.0"," 227","1","u'free'"," 'street': True","True","True","True","False"
"1192","31Spe3vCX5fHoA768ZCR9g","Tap's Deli & Brewhouse","5914 Providence Rd","Riverview","FL","33578","27.89473"," -82.31817","3.0","  19","0","'free'"," 'street': False","True","True","True","True"
"1215","qppGA9vCUPfw9ngOy_R90w","Cru Cellars - Palma Ceia","2506 S MacDill Ave","Tampa","FL","33629","27.92275"," -82.49340","4.0"," 184","1","u'free'"," 'street': False","True","True","False","False"
"1220","nVfkNZLElDdhqWcnaDPtPQ","Ruby Tuesday","10509 Gibsonton Drive","Riverview","FL","33578","27.85644"," -82.33024","2.5"," 108","1","u'free'"," 'street': False","True","True","True","True"
"1261","dPfxNIJeHLKpny0GKtAsXg","Estela's Mexican Restaurant","10478 Roosevelt Blvd","Saint Petersburg","FL","33702","27.86635"," -82.64239","2.5","  34","0","u'no'"," 'street': False","True","True","True","True"
"1265","15:0-3:0","15:0-3:0","18:0-3:0","15:0-3:0","12:0-3:0","12:0-3:0","","","","","","","","","","",""
"1267","","","","","","","","","","","","","","","","",""
"1276","m14o43aOPMR5Z8MhDi8wVw","Hooters","2250 Tyrone Sq","St. Petersburg","FL","33710","27.79297"," -82.73424","2.5","  61","0","'free'"," 'street': False","True","True","True","True"
"1280","R4eAWOt6Kz_rmo8B9FyG8g","Steak ’n Shake","16201 N Dale Mabry Hwy","Tampa","FL","33618","28.09988"," -82.50165","2.0","  77","0","'free'"," 'street': False","True","False","False","True"
"1292","11:0-2:0","11:0-2:0","11:0-2:0","11:0-3:0","11:0-3:0","11:0-0:0","","","","","","","","","","",""
"1301","11:0-3:0","11:0-3:0","11:0-3:0","11:0-3:0","11:0-3:0","11:0-3:0","","","","","","","","","","",""
"1302","TV81bpCQ6p6o4Hau5hk-zw","Hellas Restaurant","785 Dodecanese Blvd","Tarpon Springs","FL","34689","28.15539"," -82.76187","4.5","1368","1","u'no'"," 'street': True","False","True","True","True"
"1318","M4pf66QgBEu45FF_ivqk7g","Pacific Counter","660 Central Ave","Saint Petersburg","FL","33701","27.77093"," -82.64280","4.5"," 410","1","u'free'"," 'street': True","True","True","True","True"
"1349","MyON48Q_Ql9IjLc0PPXLDQ","Moe's Southwest Grill","2543 N Dale Mabry Hwy","Tampa","FL","33607","27.96401"," -82.50427","2.5","  64","1","'no'"," 'street': False","True","True","True","True"
"1364","gKPWC7F219oEbu5NXPzH4g","Sam's Beach Bar","6325 Clark St","Hudson","FL","34667","28.36194"," -82.71034","3.5"," 555","1","'free'"," 'street': True","True","True","True","True"
"1368","QlI4_BHwxb5UplGwd4vE0w","Fiesta Taqueria","1479 Belcher Rd, Ste B","Largo","FL","33771","27.90354"," -82.74570","4.5"," 123","1","'no'"," 'street': False","False","False","True","True"
"1373","BjBDHqHhMXSxgyVipccznQ","Rusty Pelican - Tampa","2425 Rocky Point Dr","Tampa","FL","33607","27.96226"," -82.56999","4.0"," 745","1","u'free'"," 'street': False","True","False","True","True"
"1377","TSkZWzfBuBr224eBMczZ_g","Stacie's Cottage Cafe","501 1st Ave N","Saint Petersburg","FL","33701","27.77251"," -82.64054","4.0","  27","1","u'free'"," 'street': True","False","True","True","True"
"1385","fa6InRseC0Uxnt5d90E3LQ","Trophy Fish","2060 Central Ave","Saint Petersburg","FL","33712","27.77086"," -82.66148","4.0"," 167","1","'no'"," u'garage': None","True","True","True","False"
"1389","hKameFsaXh9g8WQbv593UA","Aquafinz","16553 Pointe Village Dr","Lutz","FL","33558","28.19002"," -82.54043","3.5","  86","0","u'free'"," 'street': False","True","False","True","True"
"1397","rdiB9Aye9-gkwd2hnckWHQ","Tsunami Sushi & Hibachi Grill","2020 Badlands Dr","Brandon","FL","33511","27.92715"," -82.31525","4.0"," 185","1","u'no'"," 'street': False","True","False","True","True"
"1409","lZEYIL95hZsZS0vgaoR2aQ","Pizza Fusion at Skypoint","777 N Ashley Dr","Tampa","FL","33602","27.94985"," -82.46019","3.5"," 113","0","u'free'"," 'street': True","True","True","True","True"
"1419","o2sdqQ7e4IzeBWxUo_-tFQ","Saigon Bowl","2129 Drew St","Clearwater","FL","33765","27.96737"," -82.74922","4.5"," 159","1","u'no'"," 'street': False","False","None","False","True"
"1423","GWUkk9aKgvE4iRbDmJtuVw","Mo' Ziki","10801 Starkey Rd","Largo","FL","33777","27.87178"," -82.76026","4.0","  23","0","u'no'"," 'street': False","True","False","True","True"
"1427","T4-vocFpzwlIxAQIi22FFA","Another Broken Egg Cafe","470 Poinsettia Ave","Clearwater Beach","FL","33767","27.98128"," -82.82624","4.5"," 511","1","'free'"," 'street': True","False","True","True","True"
"1433","JtaWVKpvSvEUNOzOW6xFAA","Rum Runners","2706 US-19 ALT","Palm Harbor","FL","34683","28.09324"," -82.77080","2.5","  20","1","'free'"," 'street': False","True","False","True","False"
"1442","V8H6z5ulGJEkaFUyRfmLKw","Sculley's Waterfront Restaurant","190 Boardwalk Pl E","Madeira Beach","FL","33708","27.78556"," -82.78125","2.5"," 355","1","u'free'"," 'street': True","False","True","False","True"
"1443","D9p7-HsY9llYP3BaCVg4DA","Cafe Soleil","4695 Gulf Blvd","St. Pete Beach","FL","33706","27.72342"," -82.73929","5.0"," 468","1","'free'"," 'street': False","False","True","True","True"
"1467","o3RGMdSY37_PX1k1vZsXpA","Cafe Ponte","13505 Icot Blvd, Ste 214","Clearwater","FL","33760","27.89485"," -82.71370","4.5"," 541","0","u'free'"," 'street': False","False","True","False","False"
"1478","2tg6sMQr9rrXVXmgrqBYmg","Cody's Original Roadhouse","11270 4th St N","Saint Petersburg","FL","33716","27.87437"," -82.64022","3.0","  79","0","'free'"," 'street': False","True","False","True","True"
"1487","gT69S0R0gpmxwjCLznwT4A","Gio's","3621 W Waters Ave","Tampa","FL","33614","28.02747"," -82.50143","4.0","  95","1","u'free'"," 'street': False","True","True","False","False"
"1501","Sw7qcWQ5_iOUjBZMhSxyOQ","Ted Peter's Famous Smoked Fish","1350 Pasadena Ave S","South Pasadena","FL","33707","27.75541"," -82.73560","4.0"," 480","1","u'no'"," 'street': False","False","True","True","True"
"1503","aktzDUTYcNrXnJNXTIVgRQ","Kelly Days Firehouse Tavern","1710 E 7th Ave","Tampa","FL","33605","27.96048"," -82.44008","3.5","  41","0","u'free'"," 'street': True","True","True","True","True"
"1508","rkem6aEo3vAG2VufybdwuA","Outback Steakhouse","3403 Henderson Blvd","Tampa","FL","33609","27.93931"," -82.50040","3.5"," 159","1","'free'"," 'street': False","True","False","True","True"
"1519","1IjHo5kaSdFxJkJotU4O7A","Sociale Italian Tapas & Pizza Bar","5427 Bayshore Blvd","Tampa","FL","33611","27.88443"," -82.48627","4.0"," 125","0","u'free'"," 'street': False","True","True","True","False"
"1526","12:0-22:0","12:0-0:0","12:0-0:0","12:0-1:0","12:0-1:0","12:0-19:0","","","","","","","","","","",""
"1545","18:0-3:0","18:0-3:0","18:0-3:0","18:0-3:0","18:0-3:0","18:0-3:0","","","","","","","","","","",""
"1549","W78GCXLuneV5b6prO-X4aw","Tace Lounge New Orleans Cuisine & Jazz","14380 N Dale Mabry Hwy","Tampa","FL","33618","28.07832"," -82.50761","2.5","  77","0","'no'"," 'street': False","True","True","True","True"
"1550","17:0-22:0","17:0-22:0","17:0-23:0","17:0-23:0","10:0-15:0","","","","","","","","","","","",""
"1566","radib3GHt_Up9-zhUjM1ew","Red Robin Gourmet Burgers and Brews","27001 US Hwy 19 N, Ste 1130","Clearwater","FL","33761","28.01669"," -82.73467","3.5"," 175","1","u'no'"," 'street': False","True","True","True","True"
"1568","19:0-4:0","19:0-4:0","19:0-4:0","19:0-6:0","19:0-6:0","19:0-4:0","","","","","","","","","","",""
"1570","3SHw4aZW_muE1kRSLQQjjA","IHOP","802 S Dale Mabry Hwy","TAMPA","FL","33609","27.93555"," -82.50543","3.0","  69","1","u'no'"," 'street': False","False","False","False","True"
"1600","wTDuyCnQuPEvArtcX46FFQ","Proino Breakfast & Lunch","1700 S Missouri Ave","Clearwater","FL","33756","27.93477"," -82.78784","4.0","  25","1","u'free'"," u'garage': False","True","True","True","True"
"1603","jIBjZcqVOU4pOVT-sVQcfA","IRB Sushi","416 1st St","Indian Rocks Beach","FL","33785","27.88384"," -82.84991","3.5","  51","0","u'free'"," 'street': True","True","False","True","True"
"1612","gUCTzS2K_PkrJzTokZZSIw","Sunset Grille","2996 Dr Martin Luther King Jr St N","Saint Petersburg","FL","33704","27.79920"," -82.64701","4.0","  48","1","u'no'"," u'garage': False","True","True","True","True"
"1619","KP5OncF2jhT7_J1phHPPww","Besito Mexican Restaurant","205 Westshore Plz","Tampa","FL","33609","27.94625"," -82.52657","4.0","1092","1","'free'"," 'street': False","True","True","True","True"
"1624","M5rj-zpkCHcGXTxBbcrDXQ","Bandit Coffee Co.","2662 Central Ave","Saint Petersburg","FL","33712","27.77075"," -82.66955","4.5"," 296","1","u'no'"," 'street': True","True","True","False","True"
"1626","whNtPvVGI4cCTWa_Qv5Yiw","Keke's Breakfast Cafe","1203 S Dale Mabry Hwy","Tampa","FL","33629","27.93161"," -82.50713","3.5"," 121","1","u'free'"," 'street': False","False","True","True","True"
"1629","xJIeT5--AiPdvPb5BRflyQ","East Coast Pizza","13340 Lincoln Rd","Riverview","FL","33578","27.79036"," -82.34292","4.0"," 227","1","u'free'"," 'street': False","True","True","True","True"
"1635","zIUUlBoQOQqQLoi2ElcWAg","Suegra Tequila Cantina","4022 Tampa Rd","Oldsmar","FL","34677","28.03527"," -82.65499","3.5"," 132","0","u'free'"," 'street': False","True","True","True","True"
"1639","7YhxsxMgrYJsu71nadfuTQ","Campanella's Italian Restaurant & Pizza","7420 49th St","Pinellas Park","FL","33781","27.83967"," -82.70134","3.0"," 103","1","'free'"," 'street': False","True","False","True","True"
"1640","ICqgjbOpBD9SUtE5PQC9sA","Captain Bill's Oyster Bar","145 107th Ave","Treasure Island","FL","33706","27.76937"," -82.76755","4.0"," 493","1","'free'"," 'street': True","True","True","True","True"
"1646","OuJ9rEv3NbMOSndjQyqtGw","Berlins Doener","4195 34th St S","Saint Petersburg","FL","33711","27.72997"," -82.67970","4.5"," 166","1","u'free'"," 'street': True","False","True","True","True"
"1648","11:0-21:0","11:0-21:0","11:0-22:0","10:0-22:0","8:0-15:30","","","","","","","","","","","",""
"1657","_4CDv5gKHpPb1ALZKS4Sjw","Bro's Pizzeria & Bar","2535 E Bay Dr","Largo","FL","33771","27.91616"," -82.76090","4.0","  98","1","u'no'"," 'street': False","True","False","True","True"
"1678","0:0-0:0","0:0-0:0","0:0-0:0","0:0-0:0","0:0-0:0","0:0-0:0","","","","","","","","","","",""
"1682","jn7yLpUT9OvU0UMlCux8XA","River's Edge","200 N Ashley Dr","Tampa","FL","33602","27.94613"," -82.45952","3.5","  26","1","u'free'"," 'street': False","False","True","True","True"
"1698","U0bRYyQaIP2bzmOZf2N89g","Winghouse - New Port Richey","6515 US Hwy 19","New Port Richey","FL","34652","28.25275"," -82.72827","3.0","  82","1","u'free'"," 'street': False","True","True","True","True"
"1699","11:0-0:0","11:0-0:0","11:0-1:0","11:0-1:0","11:0-23:0","","","","","","","","","","","",""
"1701","cx5rIVMN-FXwBkl2Kbot7w","North 30th Sports Pub & Grille","11402 N 30th St","Tampa","FL","33612","28.05224"," -82.42667","4.5"," 106","1","'free'"," 'street': False","True","True","True","True"
"1718","JDwp5guESWuyng2MSBYEjg","Global A'fare","3023 W Kennedy Blvd","Tampa","FL","33609","27.94502"," -82.49249","4.0","  40","0","'free'"," 'street': False","True","True","True","True"
"1737","W0vdz23JQtVQX5vJkiCj3g","Cask And Ale","29 3rd St N","Saint Petersburg","FL","33701","27.77143"," -82.63686","4.0"," 118","0","'free'"," 'street': True","True","True","True","False"
"1738","16:30-3:0","16:30-3:0","16:30-3:0","12:0-3:0","12:0-3:0","","","","","","","","","","","",""
"1749","0hIXH9jMdHov1VrLC8ujUg","Al's Finger Licking Good Bar-B-Que","1609 Angel Oliva Sr St","Tampa","FL","33605","27.95925"," -82.43903","4.5"," 409","1","u'no'"," 'street': True","False","True","True","True"
"1793","11:0-20:0","9:0-12:0","11:0-20:0","11:0-21:0","11:0-19:0","","","","","","","","","","","",""
"1819","tP6tk-M8y09QKIoOO0JIbw","Shark Tales","677 75th Ave","St Pete Beach","FL","33706","27.74108"," -82.75417","3.0","  96","0","'no'"," 'street': True","True","True","True","True"
"1820","11:0-0:0","11:0-0:0","11:0-3:0","11:0-3:0","11:0-0:0","","","","","","","","","","","",""
"1853","APW4-ESYGTIn17mY189Osg","Crispers","1203 S Dale Mabry Hwy","Tampa","FL","33629","27.93161"," -82.50717","3.5","  45","0","'free'"," 'street': False","True","True","False","True"
"1869","IL4q5kYnSLSuhjlyxKuNMw","Beef 'O' Brady's","13847-C Walsingham Rd","Largo","FL","33774","27.88018"," -82.82930","3.0","  11","0","'free'"," 'street': False","True","False","True","True"
"1875","TXoxXn3IETBBJxZQMQK3rw","La Casona","5709 N Armenia Ave","Tampa","FL","33603","27.99943"," -82.48414","3.5"," 142","1","u'no'"," 'street': False","True","False","False","True"
"1903","12:0-21:0","12:0-21:0","12:0-21:0","12:0-0:0","12:0-0:0","12:0-21:0","","","","","","","","","","",""
"1905","ixPTo6Hum7nNZ7A4VPhTXg","Brick House Tavern + Tap","1102 N Dale Mabry Hwy","Tampa","FL","33607","27.95306"," -82.50629","3.5"," 561","1","u'free'"," 'street': False","True","True","True","True"
"1914","ZiQiMlvgk19GrEEkN9kyRA","The Blind Tiger Cafe - Ybor City","1901 E 7th Ave","Tampa","FL","33605","27.96014"," -82.43782","4.5"," 331","1","u'free'"," 'street': True","True","True","False","True"
"1945","dz_aIFbATP2PLWQSOBnMfw","Maggie Mae's Sunrise Cafe","1261 Gulf Blvd","Clearwater Beach","FL","33767","27.95214"," -82.82947","4.0"," 469","1","u'free'"," 'street': False","False","True","False","True"
"1949","B7nlRFe3EeQwAWpUpefGHA","Provisions Coffee & Kitchen","5862 Goldview Pkwy","Wesley Chapel","FL","33544","28.24183"," -82.35191","4.5"," 261","1","'free'"," u'garage': False","True","True","False","True"
"1950","7:0-16:0","7:0-16:0","7:0-12:0","8:0-14:0","8:0-16:0","","","","","","","","","","","",""
"1976","Wk21f0DAM7uj3DaJ_rMI-Q","Brunchies - Lutz","24400 State Rd 54","Lutz","FL","33559","28.18539"," -82.41300","4.0"," 272","1","'free'"," 'street': False","False","False","False","True"
"1987","Uc6PdjT_MO5bRPQsUUEy5Q","Anthony's Coal Fired Pizza","1901 S Dale Mabry Hwy","Tampa","FL","33629","27.92713"," -82.50630","4.0"," 229","1","'free'"," 'street': False","True","True","True","True"
"2001","WmzwJXyBdqsZCZ254XDrtQ","Sharky's Beach Bar","411 South Gulfview Blvd","Clearwater Beach","FL","33767","27.97084"," -82.82959","3.5","  63","0","u'free'"," 'street': False","True","True","True","True"
"2009","bMIVLkX6-0U2NVPaVwt94A","Poblanos Mexican Grill & Bar","2451 N McMullen Booth Rd","Clearwater","FL","33759","28.01043"," -82.70988","3.0"," 189","1","u'no'"," 'street': False","True","True","True","True"
"2010","qOdsOVOM98hHj1SCRscjHg","Applebee's Grill + Bar","30180 US Hwy 19 N","Clearwater","FL","33761","28.04648"," -82.73901","2.5","  68","1","'free'"," 'street': None","True","False","True","True"
"2023","4DVN5Uun3i-nmTIIOBhHog","The Empress Tea Room & Bistro","12924 N Dale Mabry Hwy","Tampa","FL","33618","28.06402"," -82.50560","3.5","  94","1","u'free'"," 'street': False","False","True","False","True"
"2024","","","","","","","","","","","","","","","","",""
"2028","A21srfWbl97OWsCn2lK-0Q","El Gallo Grande","1625 4th St S","St. Petersburg","FL","33701","27.75431"," -82.63869","3.5"," 157","0","u'free'"," 'street': False","True","False","True","True"
"2029","11:0-22:0","11:0-22:0","11:0-23:0","11:0-23:0","11:0-21:0","","","","","","","","","","","",""
"2072","hAmuto6UndVroyd_DaD-TA","Lobster Haven","12807 W Hillsborough Ave","Tampa","FL","33635","28.03006"," -82.63848","4.0"," 441","1","u'no'"," 'street': False","False","None","False","True"
"2083","uaKXyCNVXWdfOOdbM88pMA","Liborios Latin Cafe","8210 Causeway Blvd","Tampa","FL","33619","27.92310"," -82.36379","4.0"," 125","1","'no'"," 'street': False","True","True","True","True"
"2094","LjgiE_EbpBdIz4JyVUioTQ","Chicago Paulies","1301 N Howard Ave","Tampa","FL","33607","27.95449"," -82.48283","5.0"," 186","1","u'no'"," 'street': True","False","True","False","True"
"2115","5Y_TiS_KJAgJMf9ZiKutEQ","Jungle Prada Tavern","1700 Park St N","Saint Petersburg","FL","33710","27.78866"," -82.75281","3.5"," 118","1","'free'"," 'street': False","False","True","True","True"
"2134","WoFttPbJRti49sXBgOeIBQ","WingHouse Bar & Grill","5510 Post Oak Blvd","Wesley Chapel","FL","33544","28.23688"," -82.36879","3.0"," 146","1","'free'"," 'street': False","True","True","True","True"
"2139","P5Wq5OwEJ0Zz7piLoToXDA","Applebee's Grill + Bar","5779 East Fowler Ave","Temple Terrace","FL","33617","28.05393"," -82.39166","2.0"," 107","1","'free'"," 'street': False","True","True","True","True"
"2144","HU-S7rzIE1qDkCy4L54CHA","Sunova Beach","208 S Howard Ave","Tampa","FL","33606","27.94287"," -82.48289","3.5","  28","0","'free'"," 'street': False","True","True","True","False"
"2145","16:0-3:0","16:0-3:0","16:0-3:0","16:0-3:0","16:0-3:0","","","","","","","","","","","",""
"2159","FSTmzo0beEVMRMSArcp4fg","Lime Fresh Mexican Grill","1824 N Westshore Blvd","Tampa","FL","33607","27.95901"," -82.52441","3.0"," 106","0","u'free'"," 'street': False","True","True","False","True"
"2186","y_iKWRZuUKFJFldrrP8XPg","Bambino Pizza","2028 Bayshore Blvd","Dunedin","FL","34698","28.03873"," -82.78458","3.0","  29","1","u'free'"," 'street': False","True","True","True","True"
"2208","lJXfCo0ME730q0_qvO2l2g","Outback Steakhouse","1203 Townsgate Ct","Plant City","FL","33563","28.02662"," -82.14922","3.5","  76","1","u'no'"," 'street': False","True","True","True","True"
"2209","w4eWSjuQ75RluGFyPrkbYw","Beef 'O' Brady's","5600 Gulf Blvd","St. Pete Beach","FL","33706","27.73151"," -82.74510","3.0","  64","1","'free'"," 'street': False","True","True","True","True"
"2218","TB1FQ3iO9KJWOU56sA7Ozw","Boardwalk Pasta & Seafood","5901 Sun Blvd","Saint Petersburg","FL","33715","27.71331"," -82.71431","3.0","  61","0","'free'"," 'street': False","True","True","True","True"
"2230","SwBhaxfQPbyhsi0QHUAN0A","Seminole Hard Rock Hotel & Casino Tampa","5223 Orient Rd","Tampa","FL","33610","27.99355"," -82.37102","2.5"," 739","1","'free'"," 'street': False","True","False","True","False"
"2232","JJavElE35pux3_CgFt1r0g","NOVA 535","535 Dr Martin Luther King Jr St N","St. Petersburg","FL","33701","27.77832"," -82.64636","4.5","  52","1","u'free'"," 'street': True","False","True","True","True"
"2233","","","","","","","","","","","","","","","","",""
"2238","LnJSsNVZkStgtj86fJrKxQ","J D's Restaurant & Lounge","125 Gulf Blvd","Indian Rocks Beach","FL","33785","27.87911"," -82.85013","3.0"," 200","1","u'free'"," 'street': None","True","True","True","True"
"2282","RkA7wLIxPweJn0HgLSNjHw","Glory Days Grill","11310 Causeway Blvd","Brandon","FL","33511","27.92388"," -82.32185","4.0"," 147","1","'free'"," 'street': False","True","True","True","True"
"2298","","","","","","","","","","","","","","","","",""
"2312","cpbtWzOte7xkChJi1b923Q","Westshore Pizza","6928 22nd Ave N","Saint Petersburg","FL","33710","27.79072"," -82.73483","2.5","  25","0","u'free'"," 'street': False","False","True","False","True"
"2324","12:0-3:0","12:0-3:0","12:0-3:0","12:0-3:0","12:0-3:0","17:0-3:0","","","","","","","","","","",""
"2331","xuXNf1lkTJ382-hp0HO5Cw","Philly's Best","4038 Andy Pella Dr","Spring Hill","FL","34606","28.48571"," -82.57622","4.0","  46","1","u'free'"," 'street': False","False","True","True","True"
"2334","f4PA-f1tcN1bIpZJLdFsQQ","Deccan Spice","2325 Ulmerton Rd, Ste 28","Clearwater","FL","33762","27.89440"," -82.66748","4.0"," 268","1","u'free'"," 'street': False","True","True","True","True"
"2341","OQ1tbQ2V0SpNfDikkd8Zuw","Captain Just Crab House","11010 30th St","Tampa","FL","33612","28.04862"," -82.42661","4.0","   9","0","u'free'"," 'street': False","True","False","True","True"
"2355","a2ITIJRAY4Eo-xTH0vN95A","Chili's","17643 Bruce B Downs Blvd","Tampa","FL","33647","28.13189"," -82.36358","2.5","  67","1","'no'"," 'street': None","True","False","True","True"
"2395","mMPvgBgqON8pia_4AgGTUw","Kobe Japanese Steakhouse - Tampa","14401 N Dale Mabry Hwy","Tampa","FL","33618","28.07872"," -82.50617","4.0"," 305","1","u'no'"," 'street': False","True","False","False","True"
"2415","15:0-3:0","15:0-3:0","15:0-3:0","15:0-3:0","17:0-3:0","11:0-3:0","","","","","","","","","","",""
"2417","d9vapPUlJCSSrltRRKO9ig","Sushi Avenue","2826 E Bearss Ave","Tampa","FL","33613","28.08142"," -82.42757","4.0"," 150","1","u'free'"," 'street': False","True","False","True","True"
"2418","5JiFbBsbUdb-caBZWRyMSw","The C House","6005 N Florida Ave","Tampa","FL","33604","28.00207"," -82.45918","4.0"," 376","1","u'no'"," 'street': True","True","True","True","False"
"2426","rOBfhfJA2T2nyo1hPDaEYQ","Seffner Tiki Hut","1001 W US Hwy 92","Seffner","FL","33584","28.00451"," -82.29030","4.0","  17","1","'no'"," 'street': False","True","True","True","False"
"2451","hJrhf5N_B8ifYqHQJwFAEw","KC QUE BBQ","310 E Tarpon Ave","Tarpon Springs","FL","34689","28.14600"," -82.75324","3.5","  49","0","u'free'"," 'street': True","False","True","True","True"
"2458","mO0NXx8gr5wX4yQRQC4wRQ","Cafe Vienna","5625 4th St N","Saint Petersburg","FL","33703","27.82362"," -82.63826","4.0","  71","0","u'no'"," 'street': False","True","False","False","True"
"2477","v5ktgWMAARaczTMh2rAJKg","San Jose Mexican Restaurant","16540 Pointe Village Dr, Ste 112","Lutz","FL","33558","28.18933"," -82.54105","3.0"," 155","1","'no'"," 'street': True","True","True","True","True"
"2479","bXe7JE0bxDpoXf3UjnwoBQ","Finley's Irish Pub & Eatery","13477 S Belcher Rd","Largo","FL","33771","27.89579"," -82.74510","3.5"," 129","1","u'no'"," 'street': False","True","True","True","True"
"2481","_bofVL_0MxlZYWBa8XEJEg","swah-rey","2105 Central Avenue","St Petersburg","FL","33713","27.77124"," -82.66187","4.5"," 239","0","u'no'","True","True","u'beer_and_wine'","True"," 'classy': False"
"2490","wHyRfaCUBVG9GfXkNIzLzA","Beef 'O' Brady's","10920 Cross Creek Blvd","Tampa","FL","33647","28.14541"," -82.28403","2.0","  12","0","u'no'"," 'street': False","True","False","True","True"
"2558","3yI-7C8JzbG-ZaSqAGHMAQ","TacoSon","7521 N 56th St","Tampa","FL","33617","28.01702"," -82.39301","4.5"," 453","1","u'no'"," 'street': False","False","None","True","True"
"2570","qzCT_X5aTj8SkGpKdBYYdg","Chili's","7250 US Hwy 19 N","Pinellas Park","FL","33781","27.83772"," -82.68328","2.5"," 102","1","'free'"," 'street': False","True","False","True","True"
"2594","BuQptNNitbz1oylgBlm27g","BJ's Restaurant & Brewhouse","25628 Sr 56","Lutz","FL","33559","28.19272"," -82.39294","3.5"," 301","1","u'free'"," 'street': False","True","False","True","True"
"2620","yRl9k0zm6kWz9LMGqebaIw","The Retreat","123 S Hyde Park Ave","Tampa","FL","33606","27.94487"," -82.46414","3.5","  51","1","'free'"," 'street': True","True","True","True","False"
"2621","15:0-3:0","15:0-3:0","15:0-3:0","15:0-3:0","15:0-3:0","12:0-3:0","","","","","","","","","","",""
"2625","","","","","","","","","","","","","","","","",""
"2631","AP_sb7dETsflRNNkJinYUQ","Chill Restaurant & Bar","357 Corey Ave","Saint Pete Beach","FL","33706","27.74239"," -82.74990","4.0"," 287","1","u'free'"," 'street': True","True","True","True","True"
"2634","","","","","","","","","","","","","","","","",""
"2636","","","","","","","","","","","","","","","","",""
"2649","c37aDysgwNQsLpMWNedhTg","Bascettis Italian Grille","1568 Main St","Dunedin","FL","34698","28.01987"," -82.76158","3.5","  83","1","u'no'"," 'street': False","True","False","True","False"
"2650","","","","","","","","","","","","","","","","",""
"2669","bCAE5NBHpFlgGsGyg2mfWA","Punky's Bar and Grill","3063 Central Ave","St Petersburg","FL","33713","27.77124"," -82.67469","3.5"," 141","1","'free'"," 'street': True","True","True","True","False"
"2692","3U2sXQGPbUuAq9NflDgdRA","Razzel's Bar and Lounge","2794 Gulf To Bay Blvd","Clearwater","FL","33759","27.96120"," -82.72191","3.5","  14","0","'free'"," 'street': False","True","False","True","False"
"2700","GyC36Pn0Q1-qHnqXys6yFg","Cracker Barrel Old Country Store","3125 Cove Bend Dr","Tampa","FL","33613","28.08118"," -82.42504","3.5"," 108","1","u'no'"," 'street': False","False","True","False","True"
"2727","-o6bah2j6_IH9pkwANXcLA","Fireside Pizza Cafe","1104 Nebraska Ave","Palm Harbor","FL","34683","28.07880"," -82.76577","4.0"," 234","1","u'free'"," 'street': True","True","True","True","True"
"2731","Rv6P37KiiuowrXti2JHZNQ","Nuevo Vallarta Authentic Mexican Food","9359 US Hwy 19 N","Pinellas Park","FL","33782","27.85671"," -82.69428","4.0"," 106","1","u'free'"," 'street': False","True","False","True","True"
"2734","4FhRbipPKfjk9absHHrfaA","Clear Sky on Cleveland","418 Cleveland St","Clearwater","FL","33755","27.96589"," -82.80055","4.5"," 350","1","u'free'"," 'street': True","True","True","True","True"
"2745","M2ZrrqseHE5xssUrOL0Gtg","The Three Coins Diner","7410 N Nebraska Ave","Tampa","FL","33604","28.01598"," -82.45148","4.0"," 341","1","u'no'"," 'street': False","False","True","True","True"
"2762","zYu2D8FzczailDkEMURExg","Jimmy Guana's","401 2nd St","Indian Rocks Beach","FL","33785","27.88235"," -82.84761","3.0"," 170","1","'free'"," 'street': False","True","True","True","True"
"2784","","","","","","","","","","","","","","","","",""
"2800","u_0e1X9whtdIBURmiQCv_A","Burrito Boarder","17 3rd St N","Saint Petersburg","FL","33701","27.77169"," -82.63694","3.0"," 190","0","u'free'"," 'street': True","True","True","True","True"
"2802","","","","","","","","","","","","","","","","",""
"2809","_GfWx9wdaLadRaQV9MASig","OGGI - St Petersburg","10316 Roosevelt Blvd N","Saint Petersburg","FL","33716","27.86591"," -82.64276","4.0","  21","0","u'free'"," 'street': False","True","False","True","True"
"2810","lRPOodYgeRScvDDDO8_Qjg","Tuttorosso Restaurant & Pizzeria","7863 Blind Pass Rd","St Pete Beach","FL","33706","27.74562"," -82.75189","4.0"," 336","1","u'no'"," 'street': False","True","True","True","True"
"2815","Ge71X_Evc-rtzD8ZXMYzOw","Buffalo Wild Wings","10500 Ulmerton Rd, Ste 476","Largo","FL","33771","27.89418"," -82.78416","2.5"," 118","1","u'free'"," 'street': False","True","True","True","True"
"2821","YbZookrZl4TYe3COc87iQQ","Brits British Pub and Eatery","13706 Little Rd","Hudson","FL","34667","28.35664"," -82.66474","4.0","  75","0","u'free'"," 'street': False","True","False","True","True"
"2822","11:0-22:0","11:0-22:0","11:0-22:0","11:0-22:0","11:0-22:0","","","","","","","","","","","",""
"2853","HLasBlWiSj9TH14Qf8Y1kw","That's Amore Restaurant","700 Harbour Post Dr","Tampa","FL","33602","27.93973"," -82.45173","3.0"," 131","0","'no'"," 'street': True","True","True","True","True"
"2875","sTfVZ9xo36tU8R5DnaCGkg","Acapulco Taqueria","1001 N Macdill Ave","Tampa","FL","33607","27.95249"," -82.49269","4.5"," 303","0","u'no'"," 'street': False","False","None","False","True"
"2882","IUN-1btz9-CiL2b6tDNQqg","Benedetto's Ristorante Italiano","21529 Village Lakes Shopping Center Dr","Land O Lakes","FL","34639","28.19058"," -82.45968","3.5"," 400","1","u'free'"," 'street': False","True","True","True","True"
"2897","t99FUZpRk5eMd1G33T-05Q","Big Apple Bagels","23908 State Road 54, Unit 1","Lutz","FL","33559","28.18531"," -82.42148","4.0"," 105","1","'free'"," 'street': False","False","True","True","True"
"2900","642IgLN1a8kjDIeAkaps1A","Los Amigos Restaurant","17 7th Ave NE","Ruskin","FL","33570","27.72404"," -82.43296","4.5"," 283","1","u'no'"," 'street': False","False","False","True","True"
"2901","hA_21KNZ-qpA23hN4_txqQ","Tates Pizza","3342 S W Shore Blvd","Tampa","FL","33629","27.91357"," -82.52643","3.0","  97","1","u'free'"," 'street': False","True","True","True","True"
"2908","fOStJUhq7V-qE8RL6xepDw","Parkside Cafe","8180 49th St N","Pinellas Park","FL","33781","27.84619"," -82.70033","4.0"," 120","1","u'free'"," 'street': False","True","False","False","True"
"2916","cNH8949aoGjotaR1LvbGPw","Red Robin Gourmet Burgers and Brews","450 Brandon Town Center Mall","Brandon","FL","33511","27.93231"," -82.32608","3.0"," 208","1","'no'"," u'garage': False","True","True","True","True"
"2928","vdv_HaU7ZIID12KB9mG9Vw","Vale Food Co","501 N Franklin St","Tampa","FL","33602","27.94866"," -82.45814","3.5"," 118","1","u'free'"," 'street': True","False","True","True","True"
"2936","zwBOs4n8wfO6Ccg6G5c5hw","Hiro's Tokyo Steakhouse & Sushi Bar","5250 4th St N","St. Petersburg","FL","33703","27.81994"," -82.63913","2.5"," 114","0","'free'"," 'street': False","True","False","True","False"
"2944","ZbvSN-_WutRkxhO_abGR2g","The Black Pearl","315 Main St","Dunedin","FL","34698","28.01188"," -82.78944","4.5"," 328","1","u'free'"," 'street': True","False","None","False","False"
"2984","PXDLSN8Fg-YQmwGprVrRyA","Hernando Beach Tropical Grille","4139 Shoal Line Blvd","Hernando Beach","FL","34607","28.48968"," -82.65100","4.0"," 106","1","u'no'"," 'street': False","True","True","True","True"
"3005","X58bbekzeDgD-UHcjfEOIg","Buffalo Wild Wings","2938 Tyrone Blvd N","St Petersburg","FL","33710","27.79715"," -82.73509","2.5","  86","1","'free'"," 'street': False","True","True","True","True"
"3017","ebjExMyGlSfz_JXwvBa27g","Saffron Indian Cuisine","10865 Cross Creek Blvd","Tampa","FL","33647","28.14321"," -82.29109","4.0"," 331","1","u'free'"," 'street': False","True","False","False","True"
"3021","tt3NK-Y_Q3qFRDHVLpKTHw","Elevage","1207 S Howard Ave","Tampa","FL","33606","27.93056"," -82.48333","4.0"," 344","1","u'free'"," 'street': False","True","True","True","False"
"3031","6Z89Ixagyc0mrVnyZHiIVw","Catch Twenty Three","10103 Montague St","Tampa","FL","33626","28.04336"," -82.59710","4.0"," 407","1","u'free'"," 'street': True","True","True","True","True"
"3064","Tgb9Viuvl43GWIE88cqBUw","Jimmy John's","2325 Ulmerton Rd","Clearwater","FL","33762","27.89433"," -82.66734","2.5","  40","1","'no'"," 'street': False","False","False","True","True"
"3068","Vf0inZOaad8sv1uG8mGIGw","Kobe Japanese Steakhouse - Brandon","2210 W Brandon Blvd","Brandon","FL","33511","27.93943"," -82.32175","4.0"," 314","1","u'no'"," 'street': False","True","False","False","True"
"3077","JzQsy7_G0p-UZGYFMCEHvQ","Yummy House South","302 N Dale Mabry Hwy","Tampa","FL","33609","27.94784"," -82.50602","3.5"," 343","1","'no'"," 'street': False","False","None","True","True"
"3081","1GP62ODB3tTZn5XNUGz6Cw","Fountain Bistro","238 E Davis Blvd","Tampa","FL","33606","27.92626"," -82.45358","3.0"," 126","0","'no'"," 'street': True","True","True","True","True"
"3088","9cu2p2Z925hHkWHVyrp1JQ","Hawkers Asian Street Food","1235 Central Ave","St. Petersburg","FL","33705","27.77133"," -82.65159","4.0","1202","1","u'free'"," 'street': True","True","True","True","True"
"3109","15:0-23:0","15:0-23:0","15:0-0:0","11:0-1:0","11:0-1:0","11:0-23:0","","","","","","","","","","",""
"3125","13:0-1:0","13:0-1:0","13:0-1:0","12:0-2:0","12:0-2:0","12:0-23:0","","","","","","","","","","",""
"3129","wbwDE3g8j4w-TGy_E6dMSw","Cazador Grill","10918 N 56th St","Temple Terrace","FL","33617","28.04811"," -82.39424","4.5"," 259","1","u'free'"," 'street': False","False","None","True","True"
"3135","","","","","","","","","","","","","","","","",""
"3147","QfHcqJgrvBfgnyd9DlsZIw","Craftsman House Gallery & Cafe","2955 Central Ave","Saint Petersburg","FL","33713","27.77128"," -82.67373","4.0","  25","1","u'free'"," 'street': True","True","True","False","True"
"3150","16:0-0:0","16:0-0:0","16:0-0:0","16:0-2:0","12:0-2:0","16:0-0:0","","","","","","","","","","",""
"3168","DiysGe4irEY2Yu0iIhdkmw","Blinkers Beachside","476 Mandalay Ave","Clearwater","FL","33767","27.98136"," -82.82720","4.0"," 294","1","u'free'"," 'street': True","True","None","True","True"
"3173","CSlJBdoIGHhVg_JAc5aZwA","Starkey Pizza","12512 Starkey Rd","Largo","FL","33773","27.88606"," -82.76305","4.0","  38","1","'free'"," 'street': False","True","False","True","True"
"3185","E2RHAkI4wasggwV9rYb-Fw","Xtreme Tacos Food Truck","6809 N Nebraska Ave","Tampa","FL","33604","28.01004"," -82.45062","4.5","  73","1","'no'"," 'street': False","False","True","False","False"
"3186","0NtUzPQr3rykg6km2F6L7w","Señor Tequila Mexican Grill","12950 Race Track Rd","Tampa","FL","33626","28.06895"," -82.63455","3.5"," 161","1","u'no'"," 'street': None","True","True","True","True"
"3194","xnyKjN0JOG7L2VBaxx9axg","Spitfire Comedy House","1920 1st Ave S","Saint Petersburg","FL","33712","27.76999"," -82.65938","5.0","  11","1","u'free'"," 'street': True","True","True","False","False"
"3195","","","","","","","","","","","","","","","","",""
"3205","","","","","","","","","","","","","","","","",""
"3214","CWTQ7L73qeZfHhgXzROYbA","NY Times Square Pizzeria","226 E Bearss Ave","Tampa","FL","33613","28.08947"," -82.45864","4.0","  46","1","u'free'"," 'street': False","False","True","True","True"
"3220","gVLgBpqnqKiS6qAt0ZrEGw","DeLosa's Pizza & Italian Restaurant","2535 E Bay Dr","Largo","FL","33771","27.91616"," -82.76091","3.5","  55","0","'no'"," 'street': False","True","False","True","True"
"3236","v7gYejBWthNRIDYOaJJb6w","Beef 'O' Brady's","2561 E State Rd 60","Valrico","FL","33594","27.93660"," -82.24238","3.0","  36","1","'free'"," 'street': None","True","False","True","True"
"3251","FBr-VFAumJUoZs9LIaxhVQ","Ikigai Sushi Bowls and Wraps","4195 54th Ave N, Unit E","Saint Petersburg","FL","33714","27.82151"," -82.68877","4.5","  71","1","u'free'"," 'street': False","False","False","True","True"
"3276","AcGOk0jbFkvI1QzDpkqA8w","The Rusty Lyon","923 Broadway","Dunedin","FL","34698","28.01394"," -82.78951","4.0"," 146","1","u'free'"," 'street': True","True","True","True","True"
"3299","12:0-0:0","12:0-0:0","12:0-0:0","12:0-1:0","12:0-1:0","12:0-0:0","","","","","","","","","","",""
"3342","15:0-0:0","15:0-1:0","15:0-3:0","12:0-3:0","12:0-0:0","","","","","","","","","","","",""
"3347","11:0-23:0","11:0-23:0","11:0-23:0","11:0-23:0","12:0-22:0","","","","","","","","","","","",""
"3356","8Wcq23GYmeFNnYotBtck7g","Brew Bus Brewing","4101 N Florida Ave","Tampa","FL","33603","27.98256"," -82.45888","4.5"," 148","0","u'free'"," 'street': True","True","True","True","True"
"3357","16:0-22:0","16:0-22:0","16:0-22:0","12:0-23:0","12:0-23:0","12:0-19:0","","","","","","","","","","",""
"3360","h0tUOsL3sRYVqSQlxWjW5g","Minerva Indian Restaurant","19050 Bruce B Downs Blvd","Tampa","FL","33647","28.14602"," -82.35482","4.0"," 289","1","u'free'"," 'street': True","True","False","True","True"
"3371","NPFkTeTE0J040qW854cBhQ","Sonic Drive-In","6919 Ridge Rd","Port Richey","FL","34668","28.28110"," -82.70012","2.5","  25","1","'no'"," 'street': False","False","True","True","True"
"3384","","","","","","","","","","","","","","","","",""
"3387","qV-fAuhroG1am3WpNobEng","Sweet Brewnette","13999 Gulf Blvd, Ste C2","Madeira Beach","FL","33708","27.79439"," -82.79272","4.5"," 539","1","u'free'"," 'street': False","True","True","False","True"
"3391","zFuduzariW5hqFMJaQVW_A","El Paso Mexican Restaurant","3970 Tampa Rd","Oldsmar","FL","34677","28.03659"," -82.65950","3.5","  53","0","u'free'"," 'street': True","True","True","True","True"
"3398","igC3UWYb9RF5CXOQOVypMw","Besa Grill","2542 N McMullen Booth Rd","Clearwater","FL","33761","28.01381"," -82.70986","3.5"," 144","0","u'free'"," 'street': False","True","True","True","False"
"3411","y36s2lDcimRho8sh73UYFg","Santa Fe Mexican Grill","800 Clearwater Largo Rd N","Largo","FL","33770","27.92432"," -82.79596","3.5"," 206","1","u'no'"," 'street': False","True","False","True","True"
"3418","fCDMLD21ypv1XZ_EyafCkQ","Bodega","1180 Central Ave","Saint Petersburg","FL","33705","27.77083"," -82.65083","4.5","1772","1","u'no'"," 'street': True","False","True","False","True"
"3420","rgwiq-qZeqz7JcbI6TuImA","Flanagans Irish Pub","465 Main St","Dunedin","FL","34698","28.01195"," -82.78648","3.5"," 119","1","'free'"," 'street': True","True","False","True","False"
"3423","","","","","","","","","","","","","","","","",""
"3436","znLeqDVWANBivTQfdda4rQ","Zen Bistro Grill + Sushi","9620 Linebaugh Ave","Tampa","FL","33626","28.04289"," -82.59321","3.5"," 163","0","'no'"," 'street': False","True","True","True","True"
"3445","bY55freuP8C_wr6y5Fid7w","West Tampa Sandwich Shop","3904 N Armenia Ave","Tampa","FL","33607","27.97342"," -82.48503","4.0"," 531","1","u'no'"," 'street': True","False","False","True","True"
"3452","Y5RUhntIPDfe2eKriQFIZg","1933 Pub & Grill","2245 Nursery Rd","Clearwater","FL","33764","27.94185"," -82.74424","4.0"," 174","1","u'free'"," 'street': False","True","True","True","True"
"3462","2KDhh-PkRmKVyt4N9TkcTA","Mojito Restaurant & Lounge","5303 W Kennedy Blvd","Tampa","FL","33609","27.94528"," -82.53332","2.5","  34","1","u'free'"," 'street': False","True","False","True","False"
"3467","O-tLzrgCWcWLswlpqHt4Ag","Wet Willie's","615 Channelside Dr","Tampa","FL","33689","27.94383"," -82.44688","3.5"," 110","0","u'free'"," 'street': False","False","True","True","False"
"3493","xjbHtPC4ZWgcATfn4uSREA","Ya Boy's BBQ","1901 N Howard Ave","Tampa","FL","33607","27.95877"," -82.48276","4.5","  49","0","u'no'"," 'street': True","False","None","True","True"
"3495","yy3XR0wu1K4BTAdQjRoc0w","Catches Waterfront Grille","7811 Bayview St","Port Richey","FL","34668","28.27029"," -82.72594","3.5"," 322","1","u'free'"," 'street': False","True","True","True","True"
"3497","x09a9Qf1szbwBbamf4SUZA","PF Chang's","4100 George J Bean Pkwy","Tampa","FL","33607","27.97977"," -82.53394","3.5"," 100","1","'free'"," 'street': False","True","True","True","True"
"3514","YKFGSDwaJx1qNYoNf3BarA","Better Byrd","4447 4th St N","St. Petersburg","FL","33703","27.81260"," -82.63826","4.0"," 344","1","u'free'"," 'street': True","True","True","True","True"
"3516","SzSLKafTPOQzp3pfzPjEVg","Ichiban Japanese Cuisine & Sushi Bar","2786 E Fowler Ave, Ste A","Tampa","FL","33612","28.05550"," -82.42738","3.5"," 196","1","'free'"," 'street': False","True","False","False","True"
"3521","glMJCRj6IglVf62LRzVofQ","Hawthorne Bottle Shoppe","2927 Central Ave","Saint Petersburg","FL","33713","27.77127"," -82.67316","4.5","  68","1","'free'"," 'street': True","True","True","True","False"
"3533","zXsv-tOEvtSMY755jt-uDw","Jimmy Hula's","312 E Brandon Blvd","Brandon","FL","33511","27.93795"," -82.28290","3.5"," 322","1","u'no'"," 'street': False","True","True","True","True"
"3558","11:0-3:0","11:0-3:0","11:0-3:0","11:0-3:0","11:0-3:0","11:0-1:0","","","","","","","","","","",""
"3562","","","","","","","","","","","","","","","","",""
"3593","xODBZmX4EmlVvbqtKN7YKg","Surf Shack","12217 W Linebaugh Ave","Tampa","FL","33626","28.05684"," -82.62603","3.5"," 327","1","'free'"," u'garage': False","True","True","True","True"
"3602","QoCTnvts3Uu-M5oCJG7I3A","Jessi's Restaurant","8331 66th St N","Pinellas Park","FL","33781","27.84771"," -82.72817","4.0"," 101","0","u'free'"," 'street': True","True","False","False","True"
"3606","wJPK_kvtnlbcY6JExUxngg","Mad Hatters Kava Bar","4685 28th St N","Saint Petersburg","FL","33714","27.81446"," -82.67100","4.0"," 141","1","'free'"," 'street': False","False","True","True","False"
"3607","","","","","","","","","","","","","","","","",""
"3616","TjBvLFDUj2Hz6bkELIJbng","Bar Fly Safety Harbor","100 Main St, Ste 101","Safety Harbor","FL","34695","27.99060"," -82.68834","4.0"," 540","1","'free'"," 'street': True","True","True","True","True"
"3644","kBzD2Q8GpwcvlPPmMWVEtA","International Fresh Kitchen","6719 S West Shore Blvd","Tampa","FL","33616","27.86906"," -82.52715","4.5","  12","0","u'free'"," 'street': False","True","True","False","True"
"3678","Cz0wdTZMcRhJjhNy9sp0pw","Umami Sushi. Hibachi","3942 Tyrone Blvd N, Ste D","Saint Petersburg","FL","33709","27.80715"," -82.75168","4.5"," 217","1","u'free'"," u'garage': False","True","True","True","True"
"3703","tGHdmDBPOR_vWoHSRFICcQ","Quaker Steak & Lube","10400 49th St N","Clearwater","FL","33762","27.86682"," -82.70090","3.5"," 202","1","u'free'"," 'street': False","True","True","True","True"
"3711","aquQ6A9ywuaM8mP2_5_aFw","The Lure","2402 S MacDill Ave","Tampa","FL","33629","27.92367"," -82.49325","4.0"," 128","0","'no'"," 'street': False","True","True","True","True"
"3713","RkzE1UTCiLcMeGN8tVOFcg","Outback Steakhouse","16547 Fish Hawk Blvd","Lithia","FL","33547","27.85712"," -82.20395","3.0","  96","1","u'no'"," 'street': False","True","False","True","True"
"3719","1ymFs_vuos2IsTvWAvQv5Q","Sprinkles Tampa ATM","717 South Dakota Ave","Tampa","FL","33606","27.93669"," -82.47596","4.0"," 174","1","'no'"," 'street': True","False","False","False","True"
"3722","uaGsQWKKPhvPW2dnN2fcAw","Romano Restaurant & Bar","906 Robertson St W","Brandon","FL","33511","27.93649"," -82.29672","4.0"," 141","1","'free'"," 'street': False","False","False","True","True"
"3734","fJq59e_kG1qVkiYD-NQzZw","Buckets Tavern & Tap","4535 Gunn Hwy","Tampa","FL","33624","28.04988"," -82.51866","3.0","  74","0","'free'"," 'street': False","True","True","True","False"
"3746","z3TB52s5p5PcRsw2T3J6MQ","Chicken and Taco Loco","535 E Brandon Blvd","Brandon","FL","33511","27.93792"," -82.28123","4.5"," 235","1","'no'"," 'street': False","False","True","True","True"
"3751","OF7Q7aQ6-Evu5ueg4Na0Qg","Seabreeze Family Restaurant","6864 Seminole Blvd","Seminole","FL","33772","27.83504"," -82.78736","4.0","  30","1","'no'"," 'street': False","True","True","True","True"
"3765","QR4LGIUwFmQvozSOT16qvQ","Manatees on the Bay","3128 Beach Blvd S","Gulfport","FL","33707","27.73802"," -82.70758","3.0","  68","0","'free'"," 'street': True","True","True","True","False"
"3768","EKqTHG-TXTrP-EWpUftL0w","CK's Eats & Drinks","325 S Gulfview Blvd","Clearwater Beach","FL","33767","27.97323"," -82.82927","3.0"," 139","1","u'free'"," 'street': True","True","None","True","True"
"3771","3ulQuG_qOiN8kT3_nww0-A","The Cafe by Mise en Place","4100 George J Bean Pkwy","Tampa","FL","33607","27.97672"," -82.53767","3.5"," 104","1","u'free'"," u'garage': True","True","False","True","True"
"3775","MNI5KDlT5ErW7uuG4xgNew","Sonic Drive-In","2901 James L Redman Pkwy","Plant City","FL","33566","27.98409"," -82.12229","2.5","   7","1","'no'"," 'street': False","False","True","True","True"
"3783","nw0FKVdoqhqgrmwetQnr_w","Bauser's","520 Douglas Ave","Dunedin","FL","34698","28.00735"," -82.78815","4.0","  16","1","'free'"," 'street': False","True","True","True","False"
"3784","","","","","","","","","","","","","","","","",""
"3786","","","","","","","","","","","","","","","","",""
"3792","ozvuAWFQf528aHHOnrM0yw","Chart House","7616 W Courtney Campbell Causeway","Tampa","FL","33607","27.96603"," -82.56665","3.0"," 153","0","u'free'"," 'street': False","True","True","False","True"
"3855","X0vPZIkbUj22afBQz5-neA","Ford's Garage","11105 Causeway Blvd","Brandon","FL","33511","27.92266"," -82.32620","3.5"," 839","1","'free'"," 'street': False","True","True","True","True"
"3865","YKfY2UGz7L8ZG_HMzW1_Ug","Joe's Kitchen","139 Shore Dr","Ozona","FL","34660","28.06173"," -82.78102","4.5","   9","1","u'no'"," 'street': False","False","True","True","True"
"3867","lLhm-u5kDFVHViFAFHDFqQ","Applebee's Grill + Bar","4411 W Gandy Blvd","Tampa","FL","33611","27.89368"," -82.52111","2.0","  81","1","'free'"," 'street': None","True","True","True","True"
"3876","aX6wbe7ZLKR_fppR-XbuaQ","Stage Left","24400 State Rd 54","Tampa Bay","FL","33559","28.18533"," -82.41284","3.5","  48","0","u'free'"," 'street': False","True","False","True","False"
"3882","GqOxD_FrVMI-Y90IqKY6tA","POW","344 1st Ave S","Saint Petersburg","FL","33701","27.77005"," -82.63783","2.5","  12","0","u'no'"," 'street': False","True","True","True","True"
"3903","-U1xpWbkKmTQ3YCElPSW6A","Niki's Gyromania","12578 Spring Hill Dr","Spring Hill","FL","34609","28.46579"," -82.51293","4.0","  52","1","u'no'"," 'street': False","False","False","True","True"
"3924","z4pCmH_yphNtse3ySNCzFw","Palm Pavilion Beachside Grill & Bar","10 Bay Esplanade","Clearwater Beach","FL","33767","27.98519"," -82.82775","3.5"," 805","1","u'no'"," 'street': True","True","True","True","True"
"3928","cXm3EXarmMkvcoEwQgqilg","Are Pitas","2734 University Square Dr","Tampa","FL","33612","28.05731"," -82.43004","4.5"," 227","1","u'free'"," 'street': False","True","True","False","True"
"3936","vZ1CQyKpPBK5_jn9aujtCg","Shamrock's Ale House","7805 Temple Ter Hwy","Tampa","FL","33637","28.03214"," -82.36835","3.5"," 124","1","u'free'"," 'street': False","True","True","True","True"
"3938","wHXO4ISnBgs2-XYx0sU2Hw","Antonio's Pasta Grill","2755 Ulmerton Rd","Clearwater","FL","33762","27.89441"," -82.67105","4.0","  40","0","u'no'"," 'street': False","True","False","True","True"
"3945","E7MXV4SttBtCmcZC9mnVYw","Pirates Pub & Grub","116 Johns Pass Boardwalk W","Madeira Beach","FL","33708","27.78509"," -82.78180","4.0"," 151","1","'no'"," u'garage': True","True","True","True","True"
"3951","K11w4ri4QLSTcHIqOc1GFw","Jerk Hut's Jamaica Tropicale","513 Franklin St","Tampa","FL","33602","27.94903"," -82.45821","4.0","  92","0","u'free'"," 'street': True","True","True","True","True"
"4006","","","","","","","","","","","","","","","","",""
"4020","TD2-k2FWnEimBS4wcH3t4g","Bonsai Sushi","1652 Bruce B Downs Blvd","Wesley Chapel","FL","33544","28.18220"," -82.35285","4.0"," 233","1","u'no'"," 'street': None","True","False","True","True"
"4024","MXTtsE0pund0SVzvYWUFTQ","Due Amici","1724 E 7th Ave","Tampa","FL","33605","27.96048"," -82.43964","4.5"," 350","1","'no'"," u'garage': True","False","False","True","True"
"4049","8mBAI25Ww66m293rGUSdCw","Old Man Brown Backyard BBQ","6505 N Florida Ave","Tampa","FL","33604","28.00726"," -82.45925","1.5","  18","0","u'no'","False","False","u'none'","False"," 'classy': False"
"4063","","","","","","","","","","","","","","","","",""
"4076","urp71wTOT5uVuw0RsJE3MA","I ai Sushi","3691 W Waters Ave","Tampa","FL","33614","28.02640"," -82.50269","4.0"," 153","1","u'no'"," 'street': False","False","False","True","True"
"4086","gTKoJH4BWX67pVu-bRdsmw","Kobe Japanese Steakhouse - Clearwater","28775 US-19 N","Clearwater","FL","33761","28.03369"," -82.73718","4.0"," 221","1","u'free'"," 'street': False","True","False","True","True"
"4092","11:0-3:0","11:0-3:0","","","","","","","","","","","","","","",""
"4098","11:0-22:0","11:0-22:0","11:0-22:0","11:0-22:0","11:0-22:0","11:0-22:0","","","","","","","","","","",""
"4116","vLT1DBDuJpchewphXR6i0Q","Fresh Bites","11665 Countryway Blvd","Tampa","FL","33626","28.06952"," -82.63042","4.5"," 305","1","u'free'"," 'street': False","False","True","True","True"
"4121","33zxFqIOe6Yg8qPXKkhUjg","Konan BBQ","1510 N Hubert Ave","Tampa","FL","33607","27.95612"," -82.51616","4.5"," 262","1","u'no'"," 'street': True","False","True","True","True"
"4134","gydSKYChNcgZmOg6NiU64Q","Souzou Asian Kitchen","435 5th Ave N","Saint Petersburg","FL","33701","27.77777"," -82.63927","3.5"," 179","0","'free'"," 'street': True","True","True","True","False"
"4135","11:30-22:0","11:30-23:0","11:30-23:0","11:30-23:0","11:30-22:0","","","","","","","","","","","",""
"4170","h81N-kVGvV9f_PWJQJN9YA","First Watch","13013 US Hwy 301, Ste C","Riverview","FL","33578","27.79759"," -82.33557","4.0"," 231","1","'free'"," 'street': False","False","True","True","True"
"4201","R6M_bAdcyfGlSBOHDxEV_A","The Dog Saloon","3311 W Bay To Bay Blvd","Tampa","FL","33629","27.91994"," -82.49813","4.5","  23","1","'free'"," u'garage': None","True","True","True","False"
"4213","4xNBm3oGqSryXvvl2X3TuQ","Shephard's Ocean Flame","619 S Gulfview Blvd","Clearwater Beach","FL","33767","27.96714"," -82.82687","3.0"," 254","1","u'no'"," 'street': False","True","True","False","True"
"4214","pdve_-WVRC8V5XWzwHgchw","Steve's Pizzeria","8830 N Himes Ave","Tampa","FL","33614","28.03551"," -82.50114","3.5","  54","1","'free'","True","True","'beer_and_wine'","True"," u'casual': True"
"4234","FKgkGKRJYppEGCYuK_DOGg","Salt Rock Tavern","3689 Tampa Rd","Oldsmar","FL","34677","28.04518"," -82.68082","4.0"," 307","1","'free'"," 'street': False","True","True","True","True"
"4242","psOqIF1o1wEIMW-TmylBcA","Big John's Alabama Bar-B-Q","5707 N 40th St","Tampa","FL","33610","27.99867"," -82.41363","4.0"," 113","1","u'free'"," 'street': False","False","False","True","True"
"4247","nDpgdmULZKgRgOypj-jWuA","Pizzeria Gregario","400 2nd St N","Safety Harbor","FL","34695","27.99161"," -82.69148","4.0"," 170","1","u'free'"," 'street': True","False","True","True","True"
"4261","Di23dhpgrqBHMUq6vZ42zw","Batter & Dough","27225 State Rd 56","Wesley Chapel","FL","33544","28.18640"," -82.36553","4.5"," 172","0","u'free'"," 'street': False","False","None","True","True"
"4282","7bt0oNouJS-YNESIX4RXPA","Wild Rover Brewing Company","13921 Lynmar Blvd","Tampa","FL","33626","28.06555"," -82.63218","4.0"," 122","1","'free'"," 'street': True","True","True","True","True"
"4321","11:0-2:0","11:0-2:0","11:0-2:0","11:0-2:0","11:0-2:0","11:0-2:0","","","","","","","","","","",""
"4324","","","","","","","","","","","","","","","","",""
"4336","","","","","","","","","","","","","","","","",""
"4352","HuawlT4tXzCXL8ftyvCZ0Q","Topgolf","10690 Palm River Rd","Tampa","FL","33619","27.92986"," -82.33425","4.0"," 734","1","u'free'"," 'street': False","True","None","True","True"
"4367","XuQ5ekbJ9eRUX06JTqJHaQ","The Mill Restaurant","200 Central Ave, Ste 100","Saint Petersburg","FL","33701","27.77105"," -82.63576","4.5","1257","1","u'free'"," 'street': True","True","True","True","True"
"4372","pBoCNJzmjGghZL-osNH6sw","Taste Of New York Pizzeria","17503-C Preserve Walk Ln","Tampa","FL","33647","28.12805"," -82.36944","4.0"," 133","1","u'no'"," 'street': True","False","True","False","True"
"4430","XXQapFBGBSJ5eXKyjUI1bg","Chili's","22629 State Rd 54","Land O Lakes","FL","34639","28.18665"," -82.44194","2.5","  80","1","'free'"," 'street': False","True","False","True","True"
"4441","nIxepiPUk5FUfL4u9EFfew","New World Brewery","1313 E 8th Ave","Tampa","FL","33605","27.96076"," -82.44485","4.0"," 162","0","'no'"," 'street': True","True","True","True","False"
"4478","NhQYQXzaNQLRD_1koidAPA","Our Place - Dunedin","1617 Main St","Dunedin","FL","34698","28.01917"," -82.75982","3.5"," 156","1","u'free'"," 'street': False","False","False","True","True"
"4485","16:0-22:0","16:0-22:0","16:0-22:0","16:0-0:0","12:0-0:0","12:0-22:0","","","","","","","","","","",""
"4486","sQWOLxrjQ_6MPUcmL5ylaA","Queen's Pizza & Restaurant","1834 N Belcher Rd","Clearwater","FL","33765","27.98778"," -82.74716","3.5","  82","1","u'free'"," 'street': False","False","False","False","True"
"4488","11:0-22:0","11:0-22:0","11:0-22:0","11:0-22:0","11:0-22:0","","","","","","","","","","","",""
"4507","","","","","","","","","","","","","","","","",""
"4517","h7zTzXGy7CGNTUaNtr_RTg","Miller's Ale House","Dr Martin Luther King Jr St N","St Petersburg","FL","33702","27.84478"," -82.64633","3.5"," 178","1","u'free'"," 'street': False","True","True","True","True"
"4519","qWFSPglEUx8yjmNGRpk-bw","Tropix Beach Bar","655 S Gulfview Blvd","Clearwater Beach","FL","33767","27.96644"," -82.82575","3.5","  47","0","'paid'"," 'street': False","True","True","True","False"
"4526","_0QZGrg91aaiMhh7tQyYYg","Jacksons Bistro Bar & Sushi","601 S Harbour Island Blvd, Ste 100","Tampa","FL","33602","27.93872"," -82.45488","3.5","1115","1","u'free'"," 'street': False","True","True","True","True"
"4532","RqqCs9epqlZYAWEMXXuWtA","The Lure","661 Central Ave","Saint Petersburg","FL","33701","27.77141"," -82.64290","4.0"," 501","1","'free'"," 'street': True","True","True","True","True"
"4533","11:0-23:0","11:0-23:0","11:0-23:0","11:0-23:0","11:0-22:0","","","","","","","","","","","",""
"4543","9EoNx6yHsmiCe43XscJzDA","Fresh Kitchen","4616 W Kennedy Blvd","Tampa","FL","33609","27.94454"," -82.52284","4.5"," 241","1","'no'"," 'street': False","False","True","False","True"
"4561","oeXswr8qA-wOZ3_ys_mIAQ","Players Sports Pub","4500 W Cypress St","Tampa","FL","33607","27.95180"," -82.52146","3.0","  94","1","'free'"," 'street': False","True","False","True","False"
"4574","Hs5p15j2XBXoaPYFcKg32g","Al & Stella Authentic Italian Restaurant & Pizzeria -Water Front","1261 Gulf Blvd, Ste 110","Clearwater Beach","FL","33767","27.95189"," -82.82973","3.5","  99","1","u'free'"," 'street': False","True","True","False","True"
"4578","","","","","","","","","","","","","","","","",""
"4592","HKzGPzWR1KBG_i3QvF1D0Q","The Brass Tap","2438 Tyrone Sq","St Petersburg","FL","33710","27.79488"," -82.73477","3.5","  82","0","u'no'"," 'street': False","True","True","True","True"
"4601","hkQNgNNTTKX3LIiWn5tqTQ","Thai-Am 2","13037 Gulf Blvd","Madeira Beach","FL","33708","27.78728"," -82.78466","3.5"," 174","1","'no'"," u'garage': False","True","True","True","True"
"4614","h0wTF4WLUVI26cQoNNJW1Q","The Raven","2535 E Bay Dr","Largo","FL","33771","27.91616"," -82.76091","3.5"," 103","0","'free'"," 'street': False","True","False","True","True"
"4634","uAg0M9xi_ijuMw5T2peymg","The Blind Tiger Cafe - Westchase","10118 Montague St","Tampa","FL","33626","28.04405"," -82.59721","4.0","  88","1","u'free'"," 'street': True","True","True","False","True"
"4647","nw2CGPwu_sjkUDh2KN4XDg","Dulcet Restaurant & Lounge","6220 Grand Blvd","New Port Richey","FL","34652","28.24928"," -82.71940","3.5","  92","0","u'free'"," 'street': True","True","True","True","False"
"4672","hXvf5a798WvQtFn0Zbh2yw","Caddy's Treasure Island","9000 W Gulf Blvd","Treasure Island","FL","33706","27.75366"," -82.76409","3.5"," 908","1","'free'"," 'street': True","True","None","True","True"
"4675","","","","","","","","","","","","","","","","",""
"4676","Eop86vwzcYzDiqxqZEsyaA","JC Noodle House","14803 N Dale Mabry Hwy","Tampa","FL","33618","28.08247"," -82.50476","4.0"," 158","0","u'no'"," 'street': False","False","False","True","True"
"4681","85edSrGVhQKLu-SWCSLOQw","Jazz House Supper Club","9331 E Adamo Dr","Tampa","FL","33619","27.94862"," -82.34832","3.0","  75","0","u'paid'"," 'street': True","True","True","True","False"
"4686","emKtu_pZ-Oij9dXra8tXYg","Oak & Stone - St. Petersburg","199 Central Ave","Saint Petersburg","FL","33701","27.77140"," -82.63529","4.0"," 447","1","u'free'"," 'street': True","True","True","True","True"
"4704","9iDHCh_a3q9KStftkzHlZA","Burger Monger","10412 N Dale Mabry Hwy","Tampa","FL","33618","28.04554"," -82.50517","3.5"," 242","1","u'free'"," 'street': False","False","True","True","True"
"4720","v3HQ6t5IB2_m19GiaJD7rA","Ybor Grille","339 19th Ave NE","Ruskin","FL","33570","27.73471"," -82.42967","4.0"," 169","1","'no'"," 'street': False","True","True","True","True"
"4736","8sexen7sjgWud3DhCAYZ6w","Jimmy John's","2519 McMullen Booth Rd","Clearwater","FL","33761","28.01392"," -82.70776","3.5","  20","0","'no'"," 'street': False","False","True","True","True"
"4774","9KVh16thY33Ds8sEV5Bfww","The Patio","421 S Macdill Ave","Southwest Tampa","FL","33609","27.94022"," -82.49364","3.5","  77","1","'free'"," u'garage': False","True","True","True","False"
"4775","15:0-3:0","15:0-3:0","15:0-3:0","15:0-3:0","12:0-3:0","12:0-3:0","","","","","","","","","","",""
"4796","15:0-0:0","15:0-0:0","15:0-0:0","15:0-1:0","12:0-1:0","12:0-1:0","","","","","","","","","","",""
"4802","11:0-2:0","11:0-3:0","11:0-3:0","11:0-3:0","11:0-2:0","","","","","","","","","","","",""
"4812","z_7TZeTXsDH6MmkPHQN8nQ","Ella's Americana Folk Art Cafe","5119 N Nebraska Ave","Tampa","FL","33603","27.99360"," -82.45088","4.0"," 961","1","u'free'"," 'street': False","True","True","True","True"
"4848","","","","","","","","","","","","","","","","",""
"4850","mhXwuwa0gUXe_F4w1NMF4w","Sally O' Neal's Pizza Hotline","1319 S Howard Ave","Tampa","FL","33606","27.92899"," -82.48355","4.0"," 225","1","u'free'"," 'street': False","True","True","False","True"
"4864","408J0FMClRAstxyrt9wXEQ","Caffé Paradiso","4205 S MacDill Ave","Tampa","FL","33611","27.90364"," -82.49424","4.0","  67","1","u'free'"," 'street': False","True","False","True","False"
"4886","xowF0NCQ74qopUqm2N1AXQ","Hooters","2800 Gulf To Bay Blvd","Clearwater","FL","33759","27.96093"," -82.72120","3.0"," 206","1","'free'"," 'street': False","True","True","True","True"
"4903","ySn36gFeTJ0fR8CG-Q2DuA","Smokey Bones","8020 Citrus Park Dr","Tampa","FL","33625","28.06558"," -82.57166","3.5"," 226","1","u'free'"," 'street': False","True","True","True","True"
"4912","pKAWS_PiZub_PpFot6VrVw","Rossi Ristorante Italiano","7254 State Road 54","New Port Richey","FL","34653","28.21607"," -82.69412","4.0"," 152","1","'no'"," 'street': False","False","False","True","True"
"4917","11:0-2:0","11:0-2:0","11:0-2:0","11:0-2:0","11:0-2:0","","","","","","","","","","","",""
"4920","pOPggEGV0gy8U0v-lHByRA","Pho Quyen","2740 E Fowler Ave","Tampa","FL","33612","28.05605"," -82.42927","3.5"," 238","1","u'no'"," 'street': None","False","False","True","True"
"4940","","","","","","","","","","","","","","","","",""
"4970","Q6K5tpwqOzeewDw5ePlqbw","Post Corner Pizza & Restaurant","431 S Gulfview Blvd","Clearwater Beach","FL","33767","27.97012"," -82.82959","3.5"," 290","1","u'free'"," 'street': False","True","True","True","True"
"4974","","","","","","","","","","","","","","","","",""
"4978","ne7QDP3iqkjLqTi0jckyBA","Garrison Tavern","505 Water St","Tampa","FL","33602","27.94113"," -82.45425","3.5","  53","1","u'free'"," 'street': False","True","True","True","True"
"4999","ff0fdH-WKmY7WQgLtLkmKw","Sushi Maru","2020 W Brandon Blvd, Ste 160","Brandon","FL","33511","27.93860"," -82.31787","4.5"," 435","1","'free'"," 'street': False","True","None","True","True"
"5001","2nnp7C4d9QrJ616R39wKUA","The Pint and Brew - Downtown Tampa","200 N Tampa St","Tampa","FL","33602","27.94625"," -82.45847","4.5"," 191","1","u'free'"," 'street': True","True","None","True","False"
"5012","gB1s0hriUgVjenK4uK4a9Q","Bosco's Italian To Go","30122 State Rd 54","Wesley Chapel","FL","33543","28.23999"," -82.31794","3.5","  42","1","u'no'"," 'street': False","False","False","True","True"
"5014","6rRGA1V-mLl7f2BqqZ_AmA","Steak ’n Shake","2490 State Road 580","Clearwater","FL","33761","28.01999"," -82.73428","2.5"," 118","1","u'free'"," 'street': False","True","False","False","True"
"5017","zOIzGaEgF_L7bxg-OCsveg","The Point Pub and Grill","4300 6th St S","St. Petersburg","FL","33705","27.72946"," -82.64066","4.0","  12","0","u'free'"," 'street': False","True","True","True","True"
"5018","15:0-23:0","15:0-23:0","12:0-0:0","12:0-0:0","12:0-22:0","","","","","","","","","","","",""
"5038","6:0-23:0","6:0-23:0","6:0-23:0","6:0-23:0","6:0-23:0","","","","","","","","","","","",""
"5047","Jw3mUNF9_ZiawPDZryUdcw","Jimmy's Fish House &  Iguana Bar","521 S Gulfview Blvd","Clearwater Beach","FL","33767","27.96787"," -82.82837","3.5"," 405","1","u'free'"," 'street': False","True","True","True","True"
"5055","7uAW-xNz6z72LEuo2IZeOw","Toasted Monkey","678 75th Ave","St Pete Beach","FL","33706","27.74085"," -82.75380","3.5"," 440","1","u'free'"," 'street': False","True","True","True","True"
"5060","","","","","","","","","","","","","","","","",""
"5075","sJlbxk7ZPqfsfuyp0K9s_A","JT's Roadhouse","13609 N Florida Ave","Tampa","FL","33613","28.07143"," -82.45861","3.0","   5","1","u'free'"," 'street': False","True","True","True","False"
"5081","","","","","","","","","","","","","","","","",""
"5082","EZ_GZILKX4_rf3wPw9Rgyw","China Wok","3433 49th St N","Saint Petersburg","FL","33710","27.80342"," -82.69945","3.5","  21","1","'no'","True","False","u'none'","True"," 'classy': False"
"5108","Al2YIlvkieMwo5hW_ZBgBA","Mystic Fish Seafood Grill & Bar","3253 Tampa Rd","Palm Harbor","FL","34684","28.06827"," -82.72478","4.5"," 370","1","'no'"," 'street': False","True","True","True","False"
"5145","NVrDBWqUVw-59RpriLG6yA","Eddie's Bar & Grill","1283 N Bayshore Blvd","Dunedin","FL","34698","28.02200"," -82.78926","3.5"," 167","1","u'free'"," 'street': False","True","True","True","True"
"5148","M_JpBboLPj4kWFchdnjlAA","Kings Street Food  Counter","937 Central Ave","Saint Petersburg","FL","33705","27.77135"," -82.64774","3.5"," 213","0","'free'"," 'street': True","True","True","True","True"
"5159","WvPIOVr2dcUXcTWoloFmTw","Pizza Fusion","9556 W Linebaugh Ave","Tampa","FL","33626","28.04367"," -82.59094","4.0","  60","0","u'free'"," 'street': True","True","True","True","True"
"5162","llLvHJgkKQNfzgtKf6p3BQ","Dunedin Brewery","937 Douglas Ave","Dunedin","FL","34698","28.01398"," -82.78775","4.0"," 590","1","'free'"," 'street': True","True","True","False","False"
"5164","08zAKV1Sp-TIC_YVwBcBNw","Fred's Southern Kitchen","1401 W Dr Martin Luther King Blvd","Plant City","FL","33563","28.01152"," -82.13681","4.5"," 314","1","'free'"," 'street': False","False","False","True","True"
"5173","c4mhqHT3f-xwOtQJNgvfcA","Green Iguana Bar & Grill","1708 E 7th Ave","Tampa","FL","33605","27.96043"," -82.44016","3.0"," 112","0","'free'"," 'street': True","True","True","True","False"
"5200","-WjTNKDYRyagBFCpHmkqVA","La Hacienda Mexicana","5537 Sheldon Rd","Tampa","FL","33615","27.99922"," -82.58235","4.0","  98","1","'no'"," 'street': False","True","False","True","True"
"5206","14:0-2:0","14:0-0:0","","","","","","","","","","","","","","",""
"5237","11:0-21:0","11:0-21:0","11:0-22:0","11:0-22:0","11:0-21:0","","","","","","","","","","","",""
"5239","afJf3BGC-kZkrFR1CaWdww","London Heights British Pub","7701 N Nebraska Ave","Tampa","FL","33604","28.01776"," -82.45103","3.5","  82","0","'free'"," 'street': False","True","True","True","True"
"5243","5RzJBfSJOQ8R9Rw61dYqdA","Splitsville","615 Channelside Dr, Ste 120","Tampa","FL","33602","27.94301"," -82.44692","3.5"," 201","0","u'free'"," 'street': False","True","True","True","True"
"5274","k-tHn9uxgWdq1ROHqwc-lw","Shells Seafood  - St Pete Beach","7081 Gulf Blvd","St. Pete Beach","FL","33706","27.73949"," -82.74948","4.5"," 965","1","'free'"," 'street': False","True","True","True","True"
"5286","15:0-3:0","15:0-3:0","15:0-3:0","15:0-3:0","15:0-3:0","14:0-3:0","","","","","","","","","","",""
"5290","xWb-YZ1qoDwJYYpyONQciA","The Landing Bar & Grill","4351 Lynx Paw Trl","Valrico","FL","33596","27.87636"," -82.22267","4.0"," 184","0","u'free'"," 'street': False","True","True","True","True"
"5294","wNuyxdg5wGoMFG19k1j59Q","D'Mexican","6630 Central Ave","St. Petersburg","FL","33707","27.77055"," -82.72927","4.0"," 187","0","'free'"," 'street': False","True","False","True","True"
"5299","Y_kXztsFC7l0mMQAYXNkNA","Z Grille","104 2nd St S","St Petersburg","FL","33701","27.77012"," -82.63525","3.5"," 238","0","u'no'"," 'street': True","True","True","True","False"
"5318","N-NNqb6ANcdAyv2BoaEESA","San José Mexican Restaurant","7804 Land O Lakes Blvd","Land O' Lakes","FL","34638","28.27095"," -82.47888","4.0"," 102","1","u'no'"," 'street': False","True","True","True","True"
"5332","16:0-20:0","16:0-20:0","16:0-21:0","16:0-21:0","12:0-20:0","","","","","","","","","","","",""
"5351","","","","","","","","","","","","","","","","",""
"5364","","","","","","","","","","","","","","","","",""
"5366","7:30-22:0","7:30-18:0","7:30-0:0","8:0-0:0","9:0-21:0","","","","","","","","","","","",""
"5371","wSacmuwjiNWEgyfqtIroHg","Umai Sushi","1712 Missouri Ave N","Largo","FL","33770","27.93286"," -82.78686","4.0","  92","1","'free'"," 'street': False","True","False","True","True"
"5381","LttC5xNMFcgOg3bt_MlXTg","McAlister's Deli","4410 W Boy Scout Blvd, Ste 150","Tampa","FL","33607","27.95982"," -82.51851","4.0"," 121","1","u'free'"," 'street': False","False","True","False","True"
"5383","0OJ6J4AoqpxjwQPp159lcg","Pisces Sushi and Global Bistro","799 Highland Ave","Dunedin","FL","34698","28.01235"," -82.78567","4.5"," 528","1","u'free'"," 'street': True","True","True","True","True"
"5401","lYQKK4KG7z4jMqMBVVfTNg","Taqueria Doña Maria","865 Lithia Pinecrest Rd","Brandon","FL","33511","27.92559"," -82.27082","3.5"," 146","0","u'free'"," 'street': False","True","True","True","True"
"5402","ei8aN3ltrRjoauHIzmhrYg","Clearwater Wine Bar & Bistro","482 Poinsettia Ave","Clearwater Beach","FL","33767","27.98153"," -82.82625","4.5","  71","1","u'free'"," 'street': False","True","True","True","False"
"5404","XKevywsd9Br4YDcd7IC2-w","Alfano's Restaurant","1702 Clearwater Largo Rd","Clearwater","FL","33756","27.93455"," -82.79616","4.0","  80","1","u'no'"," 'street': False","False","True","True","True"
"5407","","","","","","","","","","","","","","","","",""
"5432","COIf71Hw6UaLqSNrT22CDQ","Sake2Me","11401 N 56th St","Tampa Bay","FL","33617","28.05217"," -82.39302","3.5","  54","0","'free'"," 'street': False","True","True","True","True"
"5452","JOU22FJLIZNsYRymOMnfkg","Poke Express","1514 E Fowler Ave, Ste B","Tampa","FL","33612","28.05522"," -82.44191","4.5"," 107","1","u'free'"," 'street': False","False","False","True","True"
"5454","11:0-23:0","11:0-23:0","11:0-23:0","11:0-1:0","11:0-1:0","11:0-22:0","","","","","","","","","","",""
"5455","v7DDirUL-ZA-CmRgl7m-pg","Mr B's Cafe","3401 N Nebraska Ave","Tampa","FL","33603","27.97435"," -82.45095","4.5","  80","1","u'free'"," 'street': False","False","None","True","True"
"5494","oo37sVFYkBTxyPqDpu6WPw","The Sail","333 S Franklin St","Tampa","FL","33602","27.94065"," -82.45531","3.5"," 365","1","u'free'"," 'street': True","True","True","True","True"
"5518","J2BU4_VsgmnYVHNCcrizjw","Fat Cat Tavern","3665 East Bay Dr, Ste 100","Largo","FL","33771","27.91505"," -82.74913","3.5","  94","1","'free'"," 'street': False","True","False","True","True"
"5541","_c-dGNiPXl82X0765DZsmA","Jerk Hut Restaurant","1241 E Fowler Ave","Tampa","FL","33612","28.05380"," -82.44675","3.5"," 341","1","u'free'"," 'street': False","True","False","True","True"
"5585","Euzc6V2xKJyEgYVZK-CyEQ","Gulf Bistro","15225 Gulf Blvd","Madeira Beach","FL","33708","27.80305"," -82.80324","4.5"," 109","1","u'no'"," 'street': False","False","False","False","False"
"5642","PFTiIAhYsCQqigErcKVskw","Caddy's On Central","217 Central Ave","St. Petersburg","FL","33701","27.77152"," -82.63592","3.0"," 125","0","u'free'"," 'street': True","True","True","True","False"
"5644","9O5FMfiJIi_u81D6ksG8Ag","GameTime","1600 E 8th Ave","Tampa","FL","33605","27.96112"," -82.44091","3.0"," 191","1","u'free'"," 'street': True","True","False","True","True"
"5663","RUgNtJ046NNtlya4-qUB3w","Sloppy Joe's","10650 Gulf Blvd","Treasure Island","FL","33706","27.76761"," -82.76904","3.5"," 657","1","u'free'"," 'street': False","True","True","True","True"
"5668","iCQ3RMglnMHnCg17dK3QiQ","Los Vallarta Mexican Restaurant","5335 Village Market","Wesley Chapel","FL","33543","28.23455"," -82.35229","3.0"," 148","1","u'no'"," 'street': False","True","False","True","True"
"5675","xpSh0Tnbed2K5JevEIvtjg","Capogna's Dugout","1653 Gulf To Bay Blvd","Clearwater","FL","33755","27.95960"," -82.76864","3.5","  95","1","u'free'"," 'street': False","True","False","True","True"
"5682","xp7IRO4FDLcHkAO59Qqehg","Cheddar's Scratch Kitchen","2391 Sun Vista Dr","Lutz","FL","33559","28.19186"," -82.39393","3.5"," 285","1","u'free'"," 'street': False","True","False","True","True"
"5690","12:0-3:0","12:0-3:0","12:0-3:0","12:0-3:0","12:0-3:0","16:0-3:0","","","","","","","","","","",""
"5696","8Q5kGm11Z33UxDrEWslqow","Beve Cibo","5622 Lithia Pinecrest Rd","Lithia","FL","33547","27.86014"," -82.19797","3.5","  55","0","u'paid'"," 'street': False","True","False","True","True"
"5697","17:0-22:0","17:0-22:0","17:0-23:0","17:0-23:0","15:0-21:0","","","","","","","","","","","",""
"5706","8rAzexb3VAcAbYPbnwrueQ","Steak ’n Shake","2567 E State Rd 60","Valrico","FL","33594","27.93723"," -82.24185","2.5","  57","1","u'free'"," 'street': False","True","False","False","True"
"5722","FGe8_MFciERzA_sM7FNJNA","Antojitos Latin Cravings","2302 W Columbus Dr","Tampa","FL","33607","27.96642"," -82.48311","4.0","  99","1","'free'"," 'street': False","False","False","True","True"
"5740","","","","","","","","","","","","","","","","",""
"5768","KW7hDw16MIvR_gyNKzTvNQ","Taqueria Emanuel","2800 N Macdill Ave, Ste E","Tampa","FL","33607","27.96599"," -82.49369","4.5"," 244","1","'no'"," 'street': False","False","None","True","True"
"5771","qqoBEhoi2AVKl9DRDACiaA","Black Rock Bar & Grill","11702 N Dale Mabry Hwy","Tampa","FL","33618","28.05497"," -82.50466","4.0"," 394","1","u'free'"," u'garage': False","True","None","True","True"
"5780","","","","","","","","","","","","","","","","",""
"5787","cZUWKX2Az7OY2N59RsFtrw","Beef 'O' Brady's","2418 James L Redman Pkwy","Plant City","FL","33566","27.98765"," -82.12027","2.5","  19","1","'free'"," 'street': False","True","False","True","True"
"5796","","","","","","","","","","","","","","","","",""
"5804","WKkLsiO4SxdegSNGJzVWpQ","Buffalo Wild Wings","4058 Tampa Rd, Ste 1","Oldsmar","FL","34677","28.03507"," -82.65433","2.5"," 140","1","u'free'"," 'street': False","True","True","True","True"
"5814","lcKgQdQU1D38ahpFDE1hUg","Panos Kouzina","3101 SR 580","Safety Harbor","FL","34695","28.02328"," -82.70832","4.0","  15","0","u'no'"," 'street': False","True","False","True","True"
"5816","0d1dpaZqcm7litFOJl7atA","Noble Crust","8300 4th St N","St. Petersburg","FL","33702","27.84790"," -82.63900","4.5","1259","1","u'free'"," 'street': False","True","True","True","True"
"5817","16:0-22:0","16:0-22:0","11:30-0:0","10:30-0:0","10:30-15:0","","","","","","","","","","","",""
"5869","EmSd4cSZgJs7D2AXsHIxBQ","Little Greek Restaurant","1155 S Dale Mabry Hwy, Ste 3","Tampa","FL","33629","27.93261"," -82.50614","4.0"," 118","1","'free'"," 'street': False","False","True","True","True"
"5870","speLDZmGk5tMenzLb0DHSg","Bellissimo Italian Eatery","13220 S Belcher Rd, Ste 20","Largo","FL","33773","27.89310"," -82.74664","4.0"," 162","0","'no'"," 'street': False","True","None","False","True"
"5876","U588hFqWbd1T9EJ6Nplv2g","Boulevard Burgers & Tap House","5905 Gulf Blvd","St Pete Beach","FL","33706","27.73285"," -82.74484","3.5"," 383","1","'free'"," 'street': True","True","True","True","True"
"5879","J1ThHocJA-46Zl6HGW3LxA","Carrabba's Italian Grill","1205 Townsgate Ct","Plant City","FL","33563","28.02681"," -82.14802","3.0","  63","1","'no'"," 'street': False","True","False","True","True"
"5899","PzELbb-ozGltoPQbAYQ3UQ","Rowe Bar","3400 Gulf Blvd","Saint Pete Beach","FL","33706","27.70926"," -82.73754","3.0","  47","1","'free'"," 'street': False","True","True","True","False"
"5900","11:0-0:0","11:0-0:0","11:0-0:0","11:0-0:0","11:0-0:0","21:0-1:0","","","","","","","","","","",""
"5903","2AVA3WSH76LXCCBEzSKNqQ","Fishhawk Pizza","15260 Fishhawk Blvd","Lithia","FL","33547","27.85306"," -82.22989","3.5"," 112","1","u'free'"," 'street': False","False","True","True","True"
"5913","LRTU8SUyCXRhQrqRlJCr6A","Los Mariachis Mexican Restaurant","9100 Ulmerton Rd","Largo","FL","33771","27.89400"," -82.76542","3.0"," 104","0","'free'"," 'street': False","True","True","True","True"
"5914","ImUZM_uDJ_uFnWOV6Jvq9Q","Dachshund's Bar & Grill","5915 Memorial Hwy","Tampa","FL","33615","27.98616"," -82.57015","4.0","   9","0","'no'"," 'street': False","True","True","True","True"
"5941","DyIO3iCiYaREeSh4ypik8A","Koto Steakhouse & Sushi Bar","533 S Howard Ave","Tampa","FL","33606","27.93967"," -82.48342","3.0"," 250","1","u'no'"," 'street': False","True","False","True","True"
"5953","V2xSuNLZb6QAb7GdNkI3rg","The Frog Pond","7390 Gulf Blvd","St Pete Beach","FL","33706","27.74122"," -82.75134","4.5"," 969","1","'no'"," 'street': True","False","True","False","True"
"5965","14:0-0:0","14:0-0:0","14:0-2:0","14:0-2:0","14:0-2:0","14:0-0:0","","","","","","","","","","",""
"5983","-ee5czr21mfEJGrbZ-572Q","Tokyo Bay Mang' Sushi & Japanese Steakhouse","7900 4th St N","St. Petersburg","FL","33702","27.84478"," -82.63890","3.5","  16","0","u'no'"," 'street': False","True","False","True","True"
"5990","Y2ILjbd9nLM_El5KKAwbbg","Copenhagen Cafe","15 N Pinellas Ave","Tarpon Springs","FL","34689","28.14664"," -82.75677","4.5","  84","1","u'free'"," 'street': True","False","True","False","True"
"5994","Gv41DHml-P1c7HalftOHnQ","Los Mexicanos","2325 Ulmerton Rd, Ste 3","Clearwater","FL","33762","27.89464"," -82.66733","3.0","  54","0","'no'"," 'street': False","True","True","True","True"
"6002","c0F9yKr0bJuQDtG1lzDgmQ","Craft Street Kitchen - Oldsmar","3153 Curlew Rd","Oldsmar","FL","34677","28.04930"," -82.70060","4.5","1013","1","'free'"," 'street': False","True","True","True","True"
"6005","QUq9AMGYSSU0678IRTODDw","Kazbors Grill & Bar","9992 US Hwy 301 S","Riverview","FL","33569","27.85472"," -82.32611","4.0","  33","1","'free'"," 'street': False","True","True","True","True"
"6011","","","","","","","","","","","","","","","","",""
"6019","T-I2IG2ds_9q9gZ5NPxFxw","China Gate Restaurant","12049 Anderson Rd","Tampa","FL","33624","28.05987"," -82.54167","3.0","  31","1","u'free'","True","True","u'none'","True"," u'casual': None"
"6027","Zn6WQQknlNtgiil0rNf9UA","Del Mar Gastro Lounge","243 Central Ave","St. Petersburg","FL","33701","27.77150"," -82.63640","3.5"," 111","1","'free'"," 'street': True","True","True","True","False"
"6028","12:0-3:0","12:0-3:0","12:0-3:0","12:0-3:0","12:0-3:0","","","","","","","","","","","",""
"6059","eR7ieJD12PUzsYrP8fw6rQ","BJ's Restaurant & Brewhouse","3800 Park Blvd N","Pinellas Park","FL","33781","27.83876"," -82.68628","3.5"," 366","1","'free'"," 'street': False","True","False","True","True"
"6062","","","","","","","","","","","","","","","","",""
"6083","jKM6u7Or-0C-UNWD2F8O1w","Victorian Grace","616 N Parsons Ave","Brandon","FL","33510","27.94888"," -82.28612","3.5","  28","0","u'no'"," 'street': False","False","False","False","False"
"6088","ZpQs6ICV63NwLrTO9kNHAA","Grille One Nine","3516 US Hwy 19","New Port Richey","FL","34652","28.21045"," -82.73892","3.5"," 140","1","'no'"," 'street': False","True","False","False","True"
"6091","YtjH3oPnx1gZt2dCdUC3tQ","Flambé","615 Channel Side Dr, Ste 123","Tampa","FL","33602","27.94383"," -82.44688","3.0","  90","0","'free'"," 'street': True","True","True","True","True"
"6121","-HcABf2Y81fglisWWXPYdQ","Salt Public House","1309 Gulf Blvd","Indian Rocks Beach","FL","33785","27.89633"," -82.84845","4.0"," 223","1","u'free'"," 'street': None","True","True","True","True"
"6127","15:0-23:0","15:0-0:0","15:0-0:0","15:0-2:0","15:0-2:0","12:0-23:0","","","","","","","","","","",""
"6146","cbEDBhFvYjP0Qw8v_5rBDA","Crazy Burrito - Dunedin","1140 Main St, Unit 2 & 3","Dunedin","FL","34698","28.01949"," -82.77443","4.5","  78","1","u'no'"," 'street': False","True","None","True","True"
"6166","XZ_jM8hnMakTT5eObEtY8A","Miss Vicki's On the River","1029 Baillies Bluff Rd","Holiday","FL","34691","28.17310"," -82.78587","4.0"," 161","1","u'no'"," 'street': False","True","True","True","True"
"6180","PG2bFg_eQgec91Jf5AXRfA","Pinchers","14391 N Dale Mabry Hwy","Tampa","FL","33618","28.07836"," -82.50619","3.5"," 132","0","u'free'"," 'street': False","True","True","True","True"
"6190","17:0-3:0","17:0-3:0","17:0-3:0","17:0-3:0","13:0-3:0","13:0-3:0","","","","","","","","","","",""
"6195","TblMkSZn7XmfTgheZ7TI5g","The Carthage Grille","811 Cleveland St","Clearwater","FL","33755","27.96556"," -82.79544","4.5","  31","0","u'free'"," 'street': True","True","True","True","True"
"6213","4D1bpaK80jcfniPSo4WsGw","Glory Days Grill","9900 4th St","St Pete","FL","33702","27.86263"," -82.63935","3.5"," 237","1","'free'"," 'street': False","True","True","True","True"
"6214","11:0-23:0","11:0-23:0","11:0-0:0","11:0-0:0","11:0-23:0","","","","","","","","","","","",""
"6216","XZRsPZb30NWjgqZBSumsSw","Chez Faby","500 N Tampa St","Tampa","FL","33602","27.94822"," -82.45926","4.5","  88","1","u'free'"," 'street': True","False","True","True","False"
"6235","7qpkCYXnmYpA72LW0AAGgA","Smokin 19","3080-3090 34th St N","St. Petersburg","FL","33713","27.80043"," -82.67985","3.5","  65","1","'free'"," u'garage': None","True","True","True","False"
"6236","11:0-23:0","11:0-23:0","11:0-0:0","7:0-0:0","7:0-23:0","","","","","","","","","","","",""
"6249","ZbUuSJ3rjjT4tsqkvHis4A","Steak ’n Shake","18627 US 19","Clearwater","FL","33764","27.94187"," -82.72955","2.0","  63","0","u'free'"," 'street': False","True","False","False","True"
"6256","","","","","","","","","","","","","","","","",""
"6260","lLzKVCIxNyKdQUeicpvaLg","Panini's of Westchase","12227 Linebaugh Ave","Tampa","FL","33626","28.05593"," -82.62698","2.5","  34","0","'free'"," 'street': False","True","True","True","True"
"6261","11:0-1:0","11:0-2:0","11:0-2:0","11:0-2:0","11:0-1:0","","","","","","","","","","","",""
"6270","yyqf-PXRLrU0EM0DfnTPeA","Apollo's Bistro","6520 Richies Way","Apollo Beach","FL","33572","27.77611"," -82.40428","3.5","  92","1","u'free'"," 'street': False","True","True","True","True"
"6276","4MY3w1Spq0LFxLKmIkGRWg","Lowry Parcade & Tavern","1213 W Waters Ave","Tampa","FL","33604","28.02566"," -82.47127","4.5","  96","1","'free'"," 'street': False","False","True","True","False"
"6277","17:0-0:0","17:0-0:0","17:0-0:0","17:0-22:0","17:0-1:0","17:0-0:0","","","","","","","","","","",""
"6290","l4IeGBHXV2E8S8COd9rx9A","Rusty Bellies","937 Dodecanese Blvd","Tarpon Springs","FL","34689","28.15507"," -82.76442","4.5","1421","1","u'free'"," 'street': False","True","True","True","True"
"6293","nHZ6Sx1wg7o8NUrtc-EgvQ","O'Brien's Irish Pub & Grill Wesley Chapel","5429 Village Market","Wesley Chapel","FL","33544","28.23596"," -82.35235","3.5","  48","1","'free'"," 'street': False","True","True","True","True"
"6313","He0fcp1LRP0HL5lwUqY8ZQ","Uncle Fats 2 Tampa","124 W Fletcher Ave","Tampa","FL","33612","28.06866"," -82.46028","3.5","  51","0","'free'"," 'street': None","True","True","True","True"
"6330","w4wYlGd-ADrda22Z7zO0Nw","Mekenita Cantina","6707 N Florida Ave","Tampa","FL","33604","28.00845"," -82.45915","4.0"," 276","1","u'free'"," 'street': True","True","True","False","True"
"6362","11:0-23:0","11:0-23:0","11:0-23:0","11:0-0:0","11:0-0:0","11:0-23:0","","","","","","","","","","",""
"6372","11:30-3:0","11:30-3:0","20:0-3:0","11:30-3:0","18:0-3:0","18:0-3:0","","","","","","","","","","",""
"6373","AHfXTupIMD01u8HtlE9BsQ","Hoagie Heaven","10203 E US Hwy 92","Tampa","FL","33610","27.99586"," -82.33201","4.0","  15","1","u'no'"," 'street': False","False","False","True","True"
"6380","D4XMyX72WYQ2nEwGQDqR7g","Red Robin Gourmet Burgers and Brews","2468 Tyrone Blvd N, Ste 435B","St. Petersburg","FL","33710","27.79349"," -82.73198","3.0"," 127","1","u'no'"," u'garage': False","True","True","True","True"
"6398","I7SkoqN88fpKagzKA059Fw","First Watch","1648 Bruce B Downs Blvd","Wesley Chapel","FL","33544","28.18222"," -82.35298","4.0"," 366","1","u'free'"," u'garage': False","False","False","True","True"
"6404","FjP8cDZwc-pUFg1bjWG-xg","The Original Grill","900 N Pinellas Ave","Tarpon Springs","FL","34689","28.15450"," -82.75648","4.0","  12","0","'no'"," 'street': False","True","True","True","True"
"6426","12:0-3:0","12:0-3:0","12:0-3:0","12:0-3:0","12:0-3:0","12:0-3:0","","","","","","","","","","",""
"6438","T73WzfVBb6s-hjIbp3_PXg","Hoosiers Grille","10630 Plantation Bay Dr","Tampa","FL","33647","28.14735"," -82.29641","3.5","  19","0","u'free'"," 'street': False","True","True","True","True"
"6441","17:0-0:0","17:0-0:0","17:0-0:0","19:0-2:0","19:0-2:0","17:0-0:0","","","","","","","","","","",""
"6450","rI9Ojso4-cd2blJdUgPBXA","Steak ’n Shake","3046 Little Rd","Trinity","FL","34655","28.20408"," -82.66570","3.0","  45","1","u'free'"," 'street': False","True","False","False","True"
"6459","2ukJ2tNmtWfHvpGjYMgVnA","Origami Sushi","6507 W Waters Ave","Tampa","FL","33634","28.02635"," -82.55274","4.0"," 276","0","u'no'"," 'street': False","True","False","True","True"
"6463","PbFG_A7A_fE-6oL4kC_zQg","So Gourmet","3301 S Dale Mabry Hwy","Tampa","FL","33629","27.91526"," -82.50633","4.0"," 167","0","u'free'"," 'street': False","False","True","True","True"
"6464","7:0-19:0","7:0-19:0","7:0-19:0","7:0-19:0","7:0-16:0","","","","","","","","","","","",""
"6476","16:0-23:0","16:0-23:0","16:0-23:0","16:0-0:0","12:0-0:0","15:0-21:0","","","","","","","","","","",""
"6489","GnaK02osEcOO9G16XIRZDg","Ducky's Sports Lounge","1719 W Kennedy Blvd","Tampa","FL","33606","27.94502"," -82.47790","3.5"," 262","1","'free'"," 'street': False","True","True","True","True"
"6496","p53i8ogh4pADR41GwaPRjg","Castile Restaurant","3701 Gulf Blvd","St Pete Beach","FL","33706","27.71360"," -82.73696","3.5"," 254","1","u'free'"," 'street': False","True","True","True","False"
"6500","","","","","","","","","","","","","","","","",""
"6530","dvTQNq-EGH1Omt318rlt1g","Falafel Inn Mediterranean Grill","777 N Ashley Dr, Ste B","Tampa","FL","33602","27.95006"," -82.46031","4.0"," 185","0","u'free'"," 'street': True","True","True","True","True"
"6531","I5jxUHS1Dp2rg40eDzyiCA","Rasoi Indian Cuisine","1701 E 8th Ave","Tampa","FL","33605","27.96077"," -82.44027","4.5"," 218","1","u'free'"," 'street': True","True","True","True","True"
"6533","sJmqrVw2Q8g2UcCu7LY7TA","Joia Fabulous Pizza & Martini Bar","10475 Gibsonton Dr","Riverview","FL","33578","27.85470"," -82.32811","3.5"," 180","1","'no'"," u'garage': False","True","True","True","True"
"6550","DsPomqfQZ44v5wD-My6dIQ","Taco Dirty","2221 W Platt St","Tampa","FL","33606","27.94207"," -82.48280","4.5"," 399","1","u'free'"," 'street': True","True","True","True","True"
"6555","PeD_3BMo_UtkDaeymSurdQ","Beef 'O' Brady's","8568 Gunn Hwy","Odessa","FL","33556","28.08603"," -82.58023","3.5","  47","1","'free'"," u'garage': False","True","True","True","True"
"6574","-ZXjWCTxItm-3wPkgsf8zQ","Argento's Italian Bistro","10042 US Hwy 19","Port Richey","FL","34668","28.30362"," -82.70259","4.5"," 239","1","'no'"," 'street': False","False","None","True","True"
